醫事機構代碼,醫事機構名稱,醫事機構電話,醫事機構地址,經度,緯度
0291010010,連江縣立醫院,(083)623995,連江縣南竿鄉復興村２１７號,119.9492,26.16084
2331200010,新北市坪林區衛生所,(02)26656272,新北市坪林區坪林街１０４號,121.7095,24.93592
2331240014,新北市平溪區衛生所,(02)24951015,新北市平溪區公園街１７號１樓,121.7365,25.02469
2331260016,新北市貢寮區衛生所,(02)24901431,新北市貢寮區朝陽街７０巷１０號、新北市貢寮區仁愛路１２８號,121.9095,25.02258
2331290014,新北市烏來區衛生所,(02)26617200,新北市烏來區新烏路５段１０９號,121.548,24.87197
2333070010,新竹縣橫山鄉衛生所,(03)5932004,新竹縣橫山鄉大肚村３鄰新興街１４１巷１０號,121.1393,24.71756
2333120015,新竹縣峨眉鄉衛生所,(03)5800314,新竹縣峨眉鄉峨眉村峨眉街２鄰５號,121.0214,24.68842
2333140017,新竹縣五峰鄉衛生所,(03)5851005,新竹縣五峰鄉大隘村六鄰９９號,121.1194,24.63184
2334110013,宜蘭縣大同鄉衛生所,(03)9801175,宜蘭縣大同鄉崙埤村朝陽４０號,121.6088,24.67785
2335110017,苗栗縣南庄鄉衛生所,(037)822024,苗栗縣南庄鄉東村大同路１７號,121,24.59733
2335150011,苗栗縣造橋鄉衛生所,(037)542755,苗栗縣造橋鄉造橋村１４鄰８－２號,120.8643,24.63672
2335170013,苗栗縣獅潭鄉衛生所,(037)931309,苗栗縣獅潭鄉新店村１３０之６號,120.9201,24.53961
2335180019,苗栗縣泰安鄉衛生所,(037)941054,苗栗縣泰安鄉清安村２鄰７２號,120.9083,24.44722
2336210034,臺中市和平區梨山衛生所,(04)25989540,臺中市和平區中正路１２號１樓、６８號１樓,121.2592,24.25678
2338070010,南投縣鹿谷鄉衛生所,(049)2752002,南投縣鹿谷鄉中正路二段２０號,120.7542,23.74488
2338120015,南投縣信義鄉衛生所,(049)2791148,南投縣信義鄉明德村玉山路４５號,120.8547,23.69653
2340170016,嘉義縣大埔鄉衛生所,(05)2521214,嘉義縣大埔鄉大埔村５３－１號,120.5928,23.29397
2341250013,臺南市南化區衛生所,(06)5771139,臺南市南化區南化里２２６－１號,120.4793,23.0444
2341300018,臺南市龍崎區衛生所,(06)5941397,臺南市龍崎區崎頂里新市子１５８號,120.3618,22.96521
2342130010,高雄市田寮區衛生所,(07)6361504,高雄市田寮區南安里崗北路３２號,120.3594,22.87301
2342180010,高雄市永安區衛生所,(07)6912015,高雄市永安區永安路２６號,120.2254,22.81879
2342250017,高雄市茂林區衛生所,(07)6801046,高雄市茂林區茂林里茂林巷８－４號,120.6641,22.88641
2342260013,高雄市桃源區衛生所,(07)6861126,高雄市桃源區桃源里南進巷１８８－１號,120.7642,23.15845
2342270019,高雄市那瑪夏區衛生所,(07)6701142,高雄市那瑪夏區瑪雅里６鄰平和巷２５２號,120.7024,23.24708
2343240015,屏東縣滿州鄉衛生所,(08)8801279,屏東縣滿州鄉滿州村中山路３１號,120.8381,22.01898
2343260017,屏東縣三地門鄉衛生所,(08)7991284,屏東縣三地門鄉三地村行政街４號,120.653,22.71477
2343270013,屏東縣霧台鄉衛生所,(08)7902232,屏東縣霧台鄉霧台村神山巷６８號,120.7261,22.74989
2343280019,屏東縣瑪家鄉衛生所,(08)7991164,屏東縣瑪家鄉北葉村風景巷８６號,120.6496,22.70801
2343290015,屏東縣泰武鄉衛生所,(08)7832059,屏東縣泰武鄉佳平村１７９號,120.6327,22.59212
2343300016,屏東縣來義鄉衛生所,(08)7850103,屏東縣來義鄉古樓村中正路９０號,120.632,22.52584
2343320018,屏東縣獅子鄉衛生所,(08)8771324,屏東縣獅子鄉楓林村楓林二巷３１號,120.7057,22.18402
2343330014,屏東縣牡丹鄉衛生所,(08)8831013,屏東縣牡丹鄉石門村１９號,120.7469,22.10105
2344011036,澎湖縣馬公市第三衛生所,(06)9211723,澎湖縣馬公市西文里１１８之２號,119.5836,23.56813
2344030013,澎湖縣白沙鄉衛生所,(06)9931044,澎湖縣白沙鄉赤崁村３５９號,119.5982,23.66669
2344030022,澎湖縣白沙鄉鳥嶼衛生所,(06)9916092,澎湖縣白沙鄉鳥嶼村漁港新村３號,119.6599,23.66008
2344030031,澎湖縣白沙鄉吉貝衛生所,(06)9911430,澎湖縣白沙鄉吉貝村８－１３號,119.6138,23.74056
2344050015,澎湖縣望安鄉衛生所,(06)9991036,澎湖縣望安鄉西安村３６－７號,119.4972,23.36161
2344050024,澎湖縣望安鄉將軍衛生所,(06)9902066,澎湖縣望安鄉將軍村１２鄰將軍澳１之３號,119.5216,23.3615
2344060011,澎湖縣七美鄉衛生所,(06)9971005,澎湖縣七美鄉中和村埔內５４號,119.431,23.2041
2345080017,花蓮縣豐濱鄉衛生所,(03)8791156,花蓮縣豐濱鄉豐濱村光豐路３９號,121.5215,23.60195
2345100014,花蓮縣富里鄉衛生所,(03)8831029,花蓮縣富里鄉富里村中山路２０３號,121.2491,23.17847
2345110010,花蓮縣秀林鄉衛生所,(03)8612122,花蓮縣秀林鄉秀林村１２鄰秀林路８８號,121.6334,24.1269
2345120016,花蓮縣萬榮鄉衛生所,(03)8751651,花蓮縣萬榮鄉萬榮村１鄰１６號,121.4092,23.71558
2345130012,花蓮縣卓溪鄉衛生所,(03)8882592,花蓮縣卓溪鄉卓溪村中正路６５號,121.3033,23.33294
2346050013,台東縣大武鄉衛生所,(089)791143,臺東縣大武鄉大武村復興路２－２號,120.9078,22.36414
2346070015,臺東縣東河鄉衛生所,(089)896289,臺東縣東河鄉東河村南東河路１０鄰３００號,121.3031,22.96846
2346110014,台東縣綠島鄉衛生所,(089)672511,臺東縣綠島鄉中寮村１－１號,121.4696,22.67319
2346120010,台東縣延平鄉衛生所,(089)561358,臺東縣延平鄉桃源村昇平路１１號,121.0855,22.90217
2346130016,台東縣海端鄉衛生所,(089)931391,臺東縣海端鄉海端村３鄰２９號,121.1767,23.10094
2346140012,台東縣達仁鄉衛生所,(089)702209,臺東縣達仁鄉安朔村復興路１２２號,120.8836,22.29488
2346150018,台東縣金峰鄉衛生所,(089)772201,臺東縣金峰鄉賓茂村１鄰１４號,120.9606,22.53248
2346160014,台東縣蘭嶼鄉衛生所,(089)732575,臺東縣蘭嶼鄉紅頭村３６號,121.5546,22.02493
2390040518,金門縣金寧鄉衛生所,(082)325735,金門縣金寧鄉盤山村仁愛新屯２之１號,118.3374,24.44479
2390050032,金門縣烈嶼鄉衛生所,(082)362078,金門縣烈嶼鄉西口村西方６－５號,118.2395,24.43519
2391020010,連江縣北竿鄉衛生所,(083)655592,連江縣北竿鄉塘岐村２８１－６號,119.9991,26.22617
2391030016,連江縣莒光鄉西莒衛生所,(083)689122,連江縣莒光鄉青帆村１４－１號,119.9331,25.97157
2391030026,連江縣莒光鄉東莒衛生所,(083)689038,連江縣莒光鄉大坪村３０－１號,119.9731,25.96113
2391040012,連江縣東引鄉衛生所,(083)677206,連江縣東引鄉中柳村１２３號,120.4904,26.36701
5901010076,榮星藥局,(02)27124696,臺北市松山區南京東路４段１３３巷５弄１號,121.5552,25.05214
5901010094,明一藥局,(02)27691654,臺北市松山區南京東路５段５９巷２８弄２５號１樓,121.5582,25.0527
5901010165,傑安藥局,(02)27524155,臺北市松山區八德路２段４３７巷７弄８號１樓,121.5473,25.04914
5901010174,仁弘藥局,(02)27136764,臺北市松山區民生東路３段１１３巷２５弄６號１樓,121.5466,25.05948
5901010192,益華藥局,(02)27624898,臺北市松山區民生東路５段１３８巷６號,121.5615,25.05827
5901010272,德靈藥局,(02)27646998,臺北市松山區富錦街５４８號,121.5667,25.06178
5901010290,健全藥局,(02)27128293,臺北市松山區民權東路３段１０３巷２０號,121.5449,25.06327
5901010496,瑞昌大藥局,(02)27151881,臺北市松山區民權東路３段１０３巷１０號,121.5449,25.06298
5901010576,合生藥局,(02)27602932,臺北市松山區南京東路５段１２３巷４５號１樓,121.5607,25.05364
5901011699,建東大藥局,(02)27676237,臺北市松山區三民路９７號１樓,121.5634,25.05723
5901011975,萬泰藥局,(02)27135891,臺北市松山區敦化北路２２２巷３８號,121.5471,25.05994
5901012203,博荃藥局,(02)27316736,臺北市松山區敦化北路４巷５１號,121.5447,25.05006
5901012409,家音藥局,(02)37652080,臺北市松山區民生東路５段７３號,121.5585,25.05871
5901012516,惠登藥局,(02)25472432,臺北市松山區民生東路３段１３０巷３４號,121.5461,25.0562
5901012561,松田藥局,(02)25798005,臺北市松山區延吉街９－６號,121.5536,25.04701
5901012570,予志藥局,(02)27623522,臺北市松山區富錦街５２１號,121.5649,25.06119
5901012598,婕登藥局,(02)27482893,臺北市松山區八德路４段６９９號,121.5766,25.05021
5901012632,晨安藥局,(02)25798460,臺北市松山區八德路３段１５５巷２０弄２號,121.5553,25.04914
5901012650,銘德藥局,(02)27511833,臺北市松山區八德路２段３６６巷２８號,121.5459,25.04724
5901012712,立康大藥局,(02)27471749,臺北市松山區八德路四段２－１號,121.5581,25.04812
5901012749,躍獅松和藥局,(02)27492569,臺北市松山區八德路四段６６６－１號,121.5761,25.04979
5901012758,京東藥局,(02)27679503,臺北市松山區南京東路五段２７２號,121.5669,25.05114
5901012767,晨新藥局,(02)27422951,臺北市松山區八德路４段９１巷１－１號,121.5608,25.04894
5901012918,躍獅京華藥局,(02)27666508,臺北市松山區南京東路５段７１號,121.5596,25.05172
5901012963,綠之家藥局,(02)25289595,臺北市松山區延壽街４２８號,121.5562,25.0562
5901013095,康采藥局,(02)27670271,臺北市松山區南京東路５段２９１巷１７－２號,121.5663,25.05236
5901013120,誠康中西藥局,(02)27619679,臺北市松山區南京東路５段５９巷３１弄４３號,121.5607,25.05346
5901013148,唯康藥局,(02)25775000,臺北市松山區八德路３段２１１號,121.5566,25.0482
5901013175,台北長庚維康藥局,(02)27199386,臺北市松山區敦化北路１９９巷２弄５號１樓,121.55,25.05563
5901013200,專品南京藥局,(02)25147685,臺北市松山區南京東路４段７３號,121.5532,25.05185
5901013308,立赫敦北藥局,(02)27199277,臺北市松山區敦化北路２２２巷２０號,121.5477,25.05945
5901013362,啄木鳥藥局,(02)27422413,臺北市松山區八德路４段２０９號、２１１號（１、２層）,121.564,25.04894
5901013371,玖田藥局,(02)27666578,臺北市松山區八德路４段６５５號,121.5755,25.05018
5901013380,澄馨藥局,(02)27420159,臺北市松山區三民路３７號,121.5635,25.0558
5901013399,一安正昇藥局,(02)27680993,臺北市松山區南京東路５段３０９號,121.5667,25.05155
5901013442,松山八德藥局,(02)27782773,臺北市松山區八德路２段４００號,121.5466,25.04804
5901013451,新德大藥局,(02)27673402,臺北市松山區饒河街２０４號,121.577,25.05074
5901013504,杏一台北長庚藥局,(02)25149463,臺北市松山區敦化北路１９９巷２弄３號,121.55,25.05569
5901013513,立赫民生藥局,(02)27139200,臺北市松山區民生東路４段７２號,121.5524,25.05787
5901013586,安禾大藥局,(02)27602952,臺北市松山區撫遠街３８２號,121.5656,25.06443
5901013595,巧心藥局,(02)25703728,臺北市松山區八德路３段１２巷５７弄３９之３號１樓,121.5521,25.04567
5901013620,躍獅敦北藥局,(02)27155691,臺北市松山區民生東路４段８０巷５號１樓,121.5531,25.05713
5901013648,慶昌藥局,(02)25770820,臺北市松山區延吉街２９號１樓,121.5537,25.04595
5901013657,順儷中崙藥局,(02)25796900,臺北市松山區八德路３段７４巷４８號１樓,121.5525,25.04685
5901013693,民生盛康藥局,(02)27460758,臺北市松山區民生東路５段２０４號１樓,121.5648,25.05826
5901013700,杏一台北台安藥局,(02)87728295,臺北市松山區八德路２段３９９號１樓,121.5465,25.04833
5901013719,大樹松山藥局,(02)27562226,臺北市松山區民生東路５段１０７號１樓,121.5601,25.05878
5901013728,康麗藥局,(02)27174117,臺北市松山區南京東路３段３０３巷２０號（１樓）,121.5468,25.05374
5901013737,全欣藥局,(02)87729066,臺北市松山區復興北路７３號２樓,121.5442,25.05104
5901013746,富景藥局,(02)27455666,臺北市松山區三民路１４５號１樓,121.5631,25.06078
5901020303,宏恩藥局,(02)27000956,臺北市大安區大安路１段１８１號,121.5461,25.03619
5901020376,靜園藥局,(02)27336390,臺北市大安區和平東路２段１１８巷５７之１號,121.5429,25.02254
5901020385,延吉大藥局,(02)27819227,臺北市大安區延吉街１５３號１樓,121.5548,25.04066
5901020465,杏友藥局,(02)27079451,臺北市大安區復興南路２段１５１巷２５號,121.5446,25.02847
5901020554,師大藥局,(02)23623479,臺北市大安區師大路９９號１樓,121.5285,25.02271
5901020563,施寶藥局,(02)27114175,臺北市大安區安東街５０－５號１樓,121.5426,25.04277
5901020616,龍護大藥局,(02)23250686,臺北市大安區大安路１段２２４巷７號１Ｆ,121.5454,25.03401
5901020634,新廣生藥局,(02)27071221,臺北市大安區仁愛路４段３４號,121.5467,25.03762
5901020661,泰佑藥局,(02)27056841,臺北市大安區安和路２段７２號１Ｆ,121.5517,25.03011
5901020689,四維藥局,(02)27094222,臺北市大安區復興南路２段１５１巷４３號１樓,121.5454,25.02846
5901020732,赫慶藥局,(02)27063497,臺北市大安區瑞安街２０８巷１１弄５號１樓,121.5408,25.02866
5901020787,吉成藥局,(02)23636475,臺北市大安區泰順街７號,121.5316,25.02557
5901020858,順天堂藥局,(02)23627149,臺北市大安區龍泉街９６號,121.5292,25.02256
5901020876,大興藥局,(02)27053369,臺北市大安區通化街３９巷５０弄１５號１樓,121.5555,25.03056
5901020901,辰安藥局,(02)27119536,臺北市大安區大安路１段３１巷２８號,121.5472,25.04385
5901021248,永誠藥局,(02)27520273,臺北市大安區忠孝東路４段２１６巷２５之１號,121.5531,25.03997
5901021382,建如藥局,(02)27331456,臺北市大安區和平東路３段２２８巷１１號１Ｆ,121.5543,25.02174
5901021408,生百藥局,(02)27371011,臺北市大安區臨江街１２４號,121.5539,25.03024
5901022601,生光藥局,(02)27780862,臺北市大安區忠孝東路３段２４８巷２號,121.5412,25.04135
5901022898,永康藥局,(02)23279362,臺北市大安區麗水街６之２號,121.529,25.03289
5901023073,世中欣藥局,(02)23938947,臺北市大安區永康街２巷８號,121.5294,25.03315
5901023215,大愛健康藥局,(02)27092156,臺北市大安區敦化南路２段６３巷６５號,121.552,25.03103
5901023304,麗樺藥師藥局,(02)23952628,臺北市大安區麗水街３號,121.529,25.03225
5901023313,安和藥局,(02)27092349,臺北市大安區安和路１段１０２巷３號,121.5519,25.03433
5901023331,佑安藥局,(02)27069339,臺北市大安區延吉街２３３巷９號,121.5561,25.03708
5901023386,弘昇藥局,(02)27110061,臺北市大安區復興南路１段１０７巷３２號,121.5458,25.04349
5901023411,長虹藥局,(02)27210232,臺北市大安區忠孝東路４段２１６巷 ６３號,121.5531,25.0382
5901023519,惠盈藥局,(02)87321366,臺北市大安區辛亥路２段１７１巷３１號,121.5412,25.02297
5901023653,信安健康藥局,(02)27084858,臺北市大安區仁愛路４段１２２巷５８號,121.5501,25.03392
5901023680,新富川藥局,(02)27114758,臺北市大安區大安路１段５１巷４號,121.5464,25.04303
5901023831,康乃馨藥局,(02)23257097,臺北市大安區建國南路１段３２７號,121.5382,25.03481
5901023902,惠良藥局,(02)27387872,臺北市大安區和平東路３段９３－１號,121.5507,25.02461
5901024007,古亭健康人生藥局,(02)23660895,臺北市大安區羅斯福路２段８３號,121.5237,25.02572
5901024098,杏一瑞安藥局,(02)27096710,臺北市大安區瑞安街２０８巷１１弄１號,121.5406,25.02866
5901024114,好安心藥局,(02)23772166,臺北市大安區和平東路２段９８之２號,121.5415,25.02493
5901024178,誠心藥局,(02)27527520,臺北市大安區忠孝東路３段１９９－１號,121.5389,25.04188
5901024221,安居藥局,(02)23773537,臺北市大安區安居街１９號,121.5549,25.02085
5901024310,躍獅新生藥局,(02)23623367,臺北市大安區和平東路２段２０號,121.5362,25.02566
5901024347,博大藥局,(02)27027858,臺北市大安區安和路２段６５號,121.5526,25.03063
5901024427,博昱仁愛藥局,(02)87739258,臺北市大安區仁愛路４段６５號,121.5469,25.03821
5901024472,忠孝康承健保藥局,(02)87733378,臺北市大安區復興南路１段１０７巷４號,121.5444,25.04357
5901024481,微笑藥師藥局,(02)27009655,臺北市大安區信義路３段３１巷４號,121.5345,25.03401
5901024490,明星大藥局,(02)27023747,臺北市大安區光復南路４３０之１號,121.5574,25.03618
5901024516,博昱師大藥局,(02)23696966,臺北市大安區羅斯福路３段１８９號,121.5281,25.02109
5901024525,國泰維康藥局,(02)27542185,臺北市大安區仁愛路４段２６６巷１５弄２０號,121.5541,25.03654
5901024543,奇威藥局,(02)23651110,臺北市大安區雲和街９３號,121.5312,25.02338
5901024669,百岳藥局,(02)27551037,臺北市大安區和平東路２段３１１巷１１號,121.5452,25.02514
5901024678,大安健康人生藥局,(02)27025553,臺北市大安區信義路４段３４號,121.5447,25.03316
5901024687,博昱大藥局,(02)23776199,臺北市大安區樂業街１４８號、１５０號,121.5529,25.01998
5901024696,仁華藥局,(02)27336762,臺北市大安區臥龍街１５５號,121.5511,25.01834
5901024703,吾家藥局,(02)27066425,臺北市大安區信義路４段２６５巷６之１號,121.5542,25.03372
5901024721,麗泰藥局,(02)27079595,臺北市大安區復興南路２段１５１巷４號,121.544,25.02832
5901024767,杏一樂業藥局,(02)27383194,臺北市大安區樂業街１６２號,121.5535,25.01958
5901024838,昶青藥局,(02)27515678,臺北市大安區濟南路３段２２之１號,121.5346,25.04008
5901024865,沛林東區生活藥粧藥局,(02)27763759,臺北市大安區忠孝東路４段１８１巷７弄５號,121.551,25.04219
5901024892,太醫藥局,(02)23685125,臺北市大安區師大路１２號,121.5283,25.02568
5901024918,康祥藥局,(02)27817891,臺北市大安區忠孝東路４段２１６巷２１號,121.5531,25.04025
5901024945,威康藥局,(02)27061149,臺北市大安區和平東路２段２９７號,121.5447,25.02495
5901024954,佑全大安敦南藥局,(02)23257579,臺北市大安區敦化南路２段６３巷４６號,121.5512,25.03089
5901024981,專品六張犁藥局,(02)87322226,臺北市大安區基隆路２段２１７號１樓,121.5513,25.02299
5901025004,早安藥局,(02)27002209,臺北市大安區建國南路２段１５１巷４２號１樓,121.5396,25.02865
5901025013,頤品中西藥局,(02)23685656,臺北市大安區浦城街２４之２號１樓,121.5267,25.02295
5901025022,躍獅敦和藥局,(02)23785767,臺北市大安區和平東路３段１０號,121.547,25.02453
5901025031,中力信義藥局,(02)23250266,臺北市大安區信義路４段５１號（１樓）,121.545,25.03354
5901025040,弘昌藥局,(02)27321616,臺北市大安區通化街１３９號１樓,121.554,25.02901
5901025059,博醫仁愛藥局,(02)27019107,臺北市大安區仁愛路４段８巷２號１樓,121.5443,25.0375
5901025068,鎮安中西安和藥局,(02)27015201,臺北市大安區安和路１段１２３號１樓,121.5527,25.03488
5901025077,敦南春天藥局,(02)27553266,臺北市大安區敦化南路２段８１巷６３號１樓,121.5513,25.03002
5901090074,慈仁藥局,(02)25572733,臺北市大同區歸綏街２６１號１樓,121.5101,25.05832
5901090127,三銘大藥局,(02)25583392,臺北市大同區迪化街１段８０號,121.5099,25.05581
5901090154,柯藥局,(02)25948515,臺北市大同區重慶北路３段３３５巷６號,121.5144,25.07452
5901090181,時春藥局,(02)25597918,臺北市大同區赤峰街４號,121.5191,25.05356
5901090216,裕仁藥局,(02)25910064,臺北市大同區迪化街２段２７０號－１,121.5115,25.07068
5901090243,建祥藥局,(02)25556476,臺北市大同區寧夏路１７號、１７－１號,121.515,25.05485
5901090289,正利民藥局,(02)25924842,臺北市大同區延平北路３段１０５號,121.511,25.06806
5901090323,泰元藥局,(02)25914592,臺北市大同區哈密街９１號,121.5146,25.07303
5901090341,正中藥局,(02)25976937,臺北市大同區民族西路２１３號,121.5142,25.06874
5901090369,保慶藥局,(02)25538988,臺北市大同區保安街２１號,121.5129,25.05926
5901091473,快安藥局,(02)25561925,臺北市大同區南京西路２８２、２８４號,121.5146,25.05349
5901091544,得意藥師藥局,(02)25534294,臺北市大同區延平北路２段２２９號,121.5115,25.06029
5901091624,健康美藥局,(02)25976707,臺北市大同區民族西路１６５號,121.5155,25.06872
5901091688,宏泰藥師藥局,(02)25957025,臺北市大同區酒泉街１３１號,121.5145,25.07213
5901091759,儷安藥局,(02)25578033,臺北市大同區錦西街５３巷１６號,121.5158,25.06065
5901091820,富康藥局,(02)25537782,臺北市大同區延平北路２段１２６號,121.5115,25.05733
5901091857,佳禾藥局,(02)25953806,臺北市大同區大龍街２６２號,121.5158,25.07061
5901091884,躍獅雙蓮藥局,(02)25537551,臺北市大同區涼州街４號,121.5147,25.06078
5901092014,旭豐藥局,(02)25853880,臺北市大同區昌吉街９６號,121.5151,25.06582
5901092069,躍獅遠東藥局,(02)25594835,臺北市大同區延平北路２段１３１號（實際營業地址：１樓）,121.5116,25.05751
5901092087,躍獅文昌藥局,(02)25586189,臺北市大同區民生西路１０８號（實際營業：一層）,121.5197,25.0574
5901092103,新聖安藥局,(02)25977877,臺北市大同區昌吉街１３０號,121.5143,25.06584
5901092112,酒泉春天藥局,(02)25977932,臺北市大同區酒泉街９４號、９４號２樓,121.5146,25.07193
5901092130,大同民生藥局,(02)25558886,臺北市大同區民生西路１２８號１樓、２樓及１３０號１樓、２樓,121.5191,25.05734
5901092149,123宅藥局,(02)25588699,臺北市大同區鄭州路１２３號（１樓）,121.5109,25.05033
5901092158,慶福藥局,(02)25503628,臺北市大同區南京西路２３３巷２號（１樓）,121.5104,25.05397
5901100057,百源堂大藥局,(02)25364362,臺北市中山區長安東路２段４７－５號,121.5322,25.04857
5901100066,名祥藥局,(02)25036265,臺北市中山區龍江路１６６號,121.5403,25.05505
5901100155,大信藥局,(02)25719080,臺北市中山區林森北路１５９巷６號,121.5255,25.0517
5901100333,明美藥局,(02)25365419,臺北市中山區長春路６９號,121.5266,25.05502
5901100342,順泰藥局,(02)25038916,臺北市中山區錦州街２６６號,121.5348,25.06025
5901100422,滿順藥局,(02)25075283,臺北市中山區伊通街５４號１樓,121.5347,25.05145
5901100431,長生藥局,(02)25816210,臺北市中山區松江路３６２巷５５號１樓,121.5313,25.06207
5901100440,優豐藥局,(02)25602565,臺北市中山區民生東路１段３２號,121.5242,25.05794
5901100628,貢玄藥局,(02)25637847,臺北市中山區錦州街２０７號,121.532,25.06039
5901100664,阿里藥局,(02)25020638,臺北市中山區錦州街２５１號,121.5342,25.06039
5901100771,良佑藥局,(02)25916402,臺北市中山區撫順街６－２號１樓,121.5216,25.06367
5901100959,武璋大藥局,(02)25072026,臺北市中山區伊通街９７號之２,121.5349,25.05317
5901101072,長青藥局,(02)25053160,臺北市中山區興安街５５號１樓,121.5419,25.05621
5901101161,晏晟藥局,(02)25851445,臺北市中山區林森北路６２５號,121.5259,25.06703
5901101205,大直藥局,(02)25320522,臺北市中山區北安路６１７號１樓,121.5488,25.08273
5901101250,美日藥局,(02)25631662,臺北市中山區天津街６６號１樓,121.5233,25.05136
5901101321,文德藥局,(02)25181178,臺北市中山區龍江路３５６巷１９號１樓,121.5401,25.06607
5901101509,永直藥局,(02)85098059,臺北市中山區北安路５９５巷２弄６號,121.5483,25.08192
5901101536,展佑藥局,(02)25232803,臺北市中山區長春路１４６－１號,121.5317,25.05473
5901101607,蓁榛健康生活藥局,(02)25099333,臺北市中山區合江街１００－２號１樓,121.5391,25.05845
5901101652,祥泰藥局,(02)25313097,臺北市中山區林森北路１３６號,121.5251,25.05142
5901101910,嘉恩藥局,(02)25181418,臺北市中山區錦州街３２１號,121.5385,25.06033
5901101929,樂活苑藥局,(02)25323296,臺北市中山區北安路５４６號１樓,121.548,25.08014
5901101992,大愛藥師藥局,(02)25424723,臺北市中山區吉林路２５５號１樓,121.5304,25.06165
5901102015,久大藥局,(02)25111594,臺北市中山區林森北路４８０號,121.5255,25.06127
5901102060,專心藥局,(02)25155847,臺北市中山區伊通街１１２－２號,121.5347,25.05426
5901102408,康林藥局,(02)25171867,臺北市中山區興安街１０５號,121.5438,25.05617
5901102444,啟美藥師藥局,(02)25178032,臺北市中山區錦州街２８２號,121.5352,25.06024
5901102560,龍江藥局,(02)25023724,臺北市中山區龍江路３５６巷１４號,121.5403,25.06591
5901102579,躍獅晴光藥局,(02)25951393,臺北市中山區農安街２３之２號,121.5245,25.06501
5901102597,德惠藥局,(02)25971131,臺北市中山區德惠街１２２號,121.53,25.06652
5901102631,金生藥局,(02)87729808,臺北市中山區長安東路２段１６７－１號,121.5407,25.04843
5901102677,興康源藥局,(02)25311248,臺北市中山區中山北路１段１４０巷８號,121.5214,25.05143
5901102686,富宥康藥局,(02)25325277,臺北市中山區北安路６０８巷５弄２２號,121.5496,25.08263
5901102837,正傑健保藥局,(02)27310181,臺北市中山區長安東路２段１８１號,121.5426,25.04839
5901102855,錦西春天生活藥局,(02)25312658,臺北市中山區錦西街１０號,121.5216,25.06024
5901102971,保德明水藥局,(02)85097769,臺北市中山區北安路６０８巷４弄１號,121.5493,25.08191
5901103110,大直健康藥局,(02)25323310,臺北市中山區北安路５９１號,121.5486,25.08194
5901103147,娸淇藥局,(02)25082762,臺北市中山區伊通街９５號,121.5349,25.05305
5901103183,OK藥師藥局,(02)25170068,臺北市中山區興安街９５號,121.5435,25.05615
5901103192,昶青林森藥局,(02)25639939,臺北市中山區林森北路１１９巷５２號,121.5269,25.05018
5901103209,麗恩藥局,(02)25981982,臺北市中山區林森北路５７５之５號,121.5258,25.0653
5901103227,建誠中西藥局,(02)25158608,臺北市中山區龍江路３８５之１號,121.541,25.06511
5901103236,誠意中西藥局,(02)25950951,臺北市中山區林森北路６１３號,121.5258,25.06647
5901103272,長安藥局,(02)27772740,臺北市中山區長安東路２段１７１－３號,121.5418,25.0484
5901103325,仁一藥局,(02)25711742,臺北市中山區林森北路５２０號,121.5255,25.06232
5901103334,大直小太陽藥局,(02)85093208,臺北市中山區北安路６０７之１號,121.5488,25.08241
5901103352,美康正康藥局,(02)25323077,臺北市中山區北安路６１６之１號、６１８號２樓之１,121.549,25.08243
5901103405,大直永安藥局,(02)25332125,臺北市中山區北安路５６７之２號,121.5482,25.08073
5901103414,元宏藥局,(02)25339728,臺北市中山區北安路４５８巷４１弄４９號,121.5465,25.0794
5901103423,農安藥局,(02)25959293,臺北市中山區農安街１８之１號,121.5248,25.06483
5901103487,錦州春天生活藥局,(02)25213586,臺北市中山區錦州街２１３號、２１３號２樓,121.5321,25.06039
5901103530,農安盛康藥局,(02)25038205,臺北市中山區農安街２６７號,121.5358,25.06477
5901103558,佳頤中西藥局,(02)25641479,臺北市中山區長春路１４７之１號,121.5323,25.05495
5901103576,康銓藥局,(02)25039393,臺北市中山區農安街１７４號,121.5346,25.06457
5901103585,禾全藥局,(02)25165721,臺北市中山區龍江路３３２號,121.5409,25.06532
5901103629,十二願藥局,(02)25311223,臺北市中山區林森北路３０９號,121.5256,25.05588
5901103647,禾康藥局,(02)26562156,臺北市中山區植福路２９６號（實際營業地址：１層）,121.5612,25.08125
5901103656,大樹龍江藥局,(02)25035666,臺北市中山區龍江路２４２號,121.5406,25.05889
5901103665,安悅藥局,(02)25419879,臺北市中山區吉林路１８９號,121.5304,25.0597
5901103674,康廷藥局,(02)25335890,臺北市中山區北安路６１１號（實際營業地址：１層）,121.5488,25.08253
5901103683,東東藥局,(02)25031730,臺北市中山區長春路２５７之２號１樓,121.5408,25.05477
5901103692,誠果中西藥局,(02)25238563,臺北市中山區吉林路１０１號１樓,121.5303,25.05619
5901103727,盛康藥局,(02)25969580,臺北市中山區吉林路３９９號１樓,121.5305,25.06587
5901103736,杏一龍錦藥局,(02)25174618,臺北市中山區龍江路２７９號１樓,121.5408,25.05973
5901103745,吉林藥局,(02)25865990,臺北市中山區吉林路３７１號（１樓）,121.5305,25.06511
5901103754,永育康暉藥局,(02)85012227,臺北市中山區樂群二路２１０之２號１樓,121.5593,25.07952
5901103772,興耀生活藥局,(02)25818210,臺北市中山區林森北路４０５號（１樓）,121.5257,25.05943
5901103781,龍江台安藥局,(02)25091007,臺北市中山區龍江路２４７號（１樓）,121.5408,25.05862
5901103790,可康藥局,(02)25361078,臺北市中山區林森北路３７３號（１樓）,121.5257,25.05826
5901103807,專品龍江藥局,(02)25178870,臺北市中山區龍江路３１１號１樓,121.5409,25.06127
5901110133,泰成藥局,(02)27921231,臺北市內湖區內湖路３段１３５號１樓,121.5899,25.08685
5901110268,赫得藥局,(02)26328642,臺北市內湖區康樂街７２巷１７弄４號１Ｆ,121.6178,25.06976
5901110311,永安藥局,(02)26586658,臺北市內湖區文德路２１０巷３０弄４８號,121.5852,25.07723
5901110339,富山藥局,(02)27996446,臺北市內湖區麗山街３６４巷２號１樓,121.5728,25.08168
5901110393,明湖藥局,(02)26313515,臺北市內湖區東湖路７巷２７號１Ｆ,121.6125,25.0697
5901110446,清白藥局,(02)26305743,臺北市內湖區東湖路１０８號,121.6157,25.06828
5901110624,宏光藥局,(02)27919068,臺北市內湖區成功路２段２２１號１樓,121.5909,25.06738
5901111890,安康藥局,(02)26327675,臺北市內湖區安康路４８２號,121.6158,25.06785
5901111934,至康藥局,(02)26580022,臺北市內湖區內湖路１段７３７巷１９弄１號,121.5785,25.07925
5901112011,文新藥局,(02)87978865,臺北市內湖區文湖街７－５號１樓,121.5599,25.08544
5901112100,盧狄聯合藥局,(02)26308897,臺北市內湖區康寧路３段１８９巷５７號,121.6129,25.07133
5901112351,康信藥局,(02)26342088,臺北市內湖區民權東路６段２９６巷２９號,121.6062,25.07203
5901112593,康健藥局,(02)26305825,臺北市內湖區康樂街８０號,121.6189,25.07015
5901112600,匯安藥局,(02)26579255,臺北市內湖區內湖路１段７０３之１號,121.5774,25.07964
5901112682,富康東湖藥局,(02)26323222,臺北市內湖區東湖路１１９巷４９弄１６號,121.617,25.06988
5901112726,高昱藥局,(02)87519962,臺北市內湖區陽光街３２１巷２６號２樓之１５,121.5786,25.07236
5901112762,樂活藥師藥局,(02)27968052,臺北市內湖區內湖路２段３６８號,121.591,25.0823
5901112780,樂康藥妝藥局,(02)26562110,臺北市內湖區文德路１１７號,121.5841,25.0787
5901112824,思恩藥局,(02)27965808,臺北市內湖區成功路４段６１巷２６號,121.5932,25.08121
5901112860,展恩藥局,(02)27953041,臺北市內湖區民權東路６段１３６巷４號,121.5877,25.06866
5901112879,壹零捌藥局,(02)27910061,臺北市內湖區成功路４段３４４號,121.5996,25.08488
5901112977,瑞光藥局,(02)87513365,臺北市內湖區瑞光路２１２號,121.5763,25.07525
5901112995,昇龍藥局,(02)26316783,臺北市內湖區東湖路１５１號,121.6174,25.0681
5901113018,桔子藥局,(02)27930052,臺北市內湖區內湖路２段３３３號,121.5917,25.08319
5901113027,晟安藥局,(02)87919320,臺北市內湖區金龍路１３５號,121.5902,25.08593
5901113081,宜昇優良藥局,(02)26327817,臺北市內湖區康寧路３段１６５巷１０號,121.6118,25.07081
5901113143,躍獅寶湖藥局,(02)87928335,臺北市內湖區民權東路６段１２３巷２８號,121.5928,25.0701
5901113198,傑昇藥局,(02)27925957,臺北市內湖區內湖路２段２２７號,121.589,25.0818
5901113205,新安健保藥局,(02)27932289,臺北市內湖區新明路４０２號,121.5797,25.05466
5901113250,大內湖藥局,(02)27956286,臺北市內湖區成功路３段１６４號１樓,121.5903,25.08035
5901113269,樂齡藥師藥局,(02)27919707,臺北市內湖區內湖路３段１０３號,121.5909,25.08641
5901113296,喜越藥局,(02)26271955,臺北市內湖區內湖路１段２８５巷５９弄７號,121.5673,25.08377
5901113312,江南大藥局,(02)26595430,臺北市內湖區文德路２２巷９弄５６號,121.5791,25.07656
5901113330,躍獅大湖藥局,(02)27945376,臺北市內湖區成功路４段３２９號,121.599,25.08454
5901113367,瑞暉藥局,(02)26276828,臺北市內湖區文德路１０５號,121.5837,25.0787
5901113385,躍獅康成藥局,(02)87922031,臺北市內湖區成功路４段６１巷１１號,121.5928,25.0814
5901113401,躍獅麗湖藥局,(02)26276160,臺北市內湖區內湖路１段４０１之１號,121.5706,25.08188
5901113438,晶龍藥局,(02)27956255,臺北市內湖區成功路４段２１８號,121.5961,25.08456
5901113456,佑全內湖康寧藥局,(02)26346578,臺北市內湖區康寧路３段３９號、３９號２樓、４１號、４３號,121.6078,25.07264
5901113509,安安藥局,(02)87912187,臺北市內湖區康寧路１段４號１樓,121.5912,25.08057
5901113563,耀元藥局,(02)26337369,臺北市內湖區康樂街１５０號,121.6192,25.07263
5901113572,西湖藥局,(02)26279291,臺北市內湖區內湖路１段３５５號,121.5693,25.0822
5901113590,維安藥局,(02)27944520,臺北市內湖區成功路３段１７４巷２３號,121.5906,25.08143
5901113625,富康文德藥局,(02)26272000,臺北市內湖區文德路２２巷２７弄４號,121.58,25.0766
5901113643,博昱東福藥局,(02)26308599,臺北市內湖區東湖路１４７號,121.6172,25.06815
5901113652,加一藥師藥局,(02)87912653,臺北市內湖區星雲街２４號１樓,121.5908,25.07804
5901113661,內湖藥局,(02)27940545,臺北市內湖區康寧路１段１１６號１樓,121.5934,25.07948
5901113689,葫光藥局,(02)26336611,臺北市內湖區康寧路３段５４巷６號１樓,121.609,25.07168
5901113705,富康活力湖光藥局,(02)87927999,臺北市內湖區康寧路１段２５號１樓,121.5914,25.08062
5901113723,杏一港墘藥局,(02)87978746,臺北市內湖區港墘路８３號（１樓）,121.5781,25.08078
5901113732,富康活力誠功藥局,(02)27960222,臺北市內湖區成功路４段３０巷２０號１樓,121.5916,25.08235
5901113741,原大藥局,(02)26596358,臺北市內湖區內湖路１段７３７巷５０弄５號１樓,121.5788,25.08058
5901120022,旭村藥局,(02)27820948,臺北市南港區興華路１１２號,121.6055,25.05661
5901120139,裕成藥局,(02)27851227,臺北市南港區玉成街１６６巷１３號,121.5835,25.04433
5901120175,新錦安藥局,(02)27825218,臺北市南港區南港路３段３４號,121.5922,25.05429
5901120308,加欣藥局,(02)27836222,臺北市南港區南港路２段２６號,121.6054,25.05425
5901121421,祥安藥局,(02)26547322,臺北市南港區中坡南路２５號,121.5832,25.04329
5901121583,健園藥局,(02)27851567,臺北市南港區研究院路１段１９號１樓,121.6166,25.05401
5901121618,新東發藥局,(02)27855190,臺北市南港區成福路１９８號,121.5883,25.04092
5901121627,富康活力藥局,(02)27828810,臺北市南港區研究院路１段１０１巷８號,121.6165,25.05181
5901121672,亞博藥師藥局,(02)27838090,臺北市南港區興華路８１號,121.6061,25.05545
5901121725,佳龍藥局,(02)27885951,臺北市南港區研究院路２段８０號,121.6152,25.0454
5901121734,湳港藥局,(02)27892200,臺北市南港區研究院路１段１０１巷１２號,121.6167,25.05175
5901121823,儀安健保藥局,(02)27859893,臺北市南港區同德路７４號,121.5853,25.0457
5901121841,泓安藥局,(02)27861083,臺北市南港區興華路７５號,121.6061,25.05517
5901121850,健涵藥局,(02)27837285,臺北市南港區舊莊街１段１４７號,121.6205,25.03985
5901121869,南港藥局,(02)27829137,臺北市南港區南港路一段１６６號,121.6119,25.05536
5901121896,順翔藥局,(02)27824332,臺北市南港區研究院路２段１７０號,121.6169,25.03785
5901121903,景星藥局,(02)27838816,臺北市南港區南港路３段２６號,121.5924,25.05434
5901121912,成恩藥局,(02)27856602,臺北市南港區成福路２３號,121.5867,25.04473
5901121930,小藥師健保藥局,(02)27867002,臺北市南港區福德街３２０之１號,121.588,25.03948
5901121958,心亮藥局,(02)27881677,臺北市南港區玉成街６６之７號,121.5818,25.04692
5901121985,勝安藥局,(02)27828450,臺北市南港區舊莊街１段１６５號,121.6211,25.03949
5901122062,躍獅忠孝藥局,(02)27862829,臺北市南港區成福路１６號,121.586,25.04561
5901122080,成福大藥局,(02)27859221,臺北市南港區成福路８號,121.5859,25.04578
5901122115,上丞藥師藥局,(02)26535589,臺北市南港區成福路１０號１樓,121.5859,25.04574
5901122124,杏安藥局,(02)27864119,臺北市南港區昆陽街１４０巷１６號１樓,121.5938,25.04969
5901150011,南風藥局,(02)28320375,臺北市士林區美崙街１９號１樓,121.5233,25.09715
5901150057,菁安藥局,(02)28323951,臺北市士林區美侖街５號１樓,121.5214,25.09718
5901150128,新興藥局,(02)28362643,臺北市士林區德行西路１１７號,121.5206,25.10398
5901150146,坤成泰藥局,(02)28813903,臺北市士林區大南路４１２號,121.5162,25.08996
5901150235,杏城藥局,(02)28725144,臺北市士林區天母東路２４號,121.5322,25.11764
5901150244,佳赫藥局,(02)28367202,臺北市士林區文昌路６２號,121.5214,25.09605
5901150253,文祥藥局,(02)28623487,臺北市士林區光華路２６巷２弄２號,121.542,25.13749
5901150271,建芳藥局,(02)28357172,臺北市士林區德行東路１４８號,121.5296,25.10804
5901150342,士林三安藥局,(02)28812631,臺北市士林區大南路１１號,121.526,25.08898
5901150397,博惠藥局,(02)28320379,臺北市士林區華榮街１６號,121.5236,25.09549
5901150468,太安藥局,(02)28111468,臺北市士林區延平北路５段１５７號,121.5101,25.08251
5901150548,田倉藥局,(02)88662188,臺北市士林區士東路１２４號,121.5302,25.11219
5901150575,日康藥局,(02)28358558,臺北市士林區士東路１２號１樓,121.5267,25.11168
5901150593,安寧藥局,(02)28803319,臺北市士林區劍潭路９１號,121.5199,25.08285
5901150771,天母大和藥師藥局,(02)28310142,臺北市士林區德行東路１８９－１號１樓,121.5317,25.10897
5901150815,陽明藥局,(02)28612863,臺北市士林區菁山路１０號１樓,121.5469,25.13797
5901152024,今欣藥局,(02)28713129,臺北市士林區天母西路４１巷９號１樓,121.5274,25.11931
5901152079,資生堂藥局,(02)28857588,臺北市士林區承德路４段４０巷１７號１Ｆ,121.522,25.08107
5901152293,安泰藥師藥局,(02)28166977,臺北市士林區延平北路六段８３號（實際使用：１、２樓）,121.5087,25.08844
5901152453,家赫藥局,(02)28346453,臺北市士林區忠義街８０號１樓,121.5317,25.10614
5901152471,得安藥局,(02)28836336,臺北市士林區文林路１４０號,121.5267,25.08878
5901152604,達揚藥局,(02)88115559,臺北市士林區社正路３６號１樓,121.5099,25.08877
5901152640,仁大藥局,(02)88113793,臺北市士林區社子街１３號１樓,121.5083,25.08769
5901152659,和樹藥局,(02)28821188,臺北市士林區後港街４５巷１號１樓,121.5228,25.08444
5901152686,三光藥局,(02)28123786,臺北市士林區延平北路５段３２０號１樓,121.5096,25.08628
5901152720,博信藥局,(02)28128295,臺北市士林區延平北路６段６１號,121.5088,25.08788
5901152739,芳圓藥局,(02)28168666,臺北市士林區社子街２６－１號,121.508,25.0875
5901152748,柏雅大藥局,(02)88664398,臺北市士林區德行西路６４號,121.5227,25.10506
5901152793,信光藥局,(02)28366277,臺北市士林區文昌路６８號,121.5214,25.09619
5901152873,幸福藥局,(02)28346650,臺北市士林區德行東路１０９巷８號,121.5284,25.10812
5901152971,石川藥師藥局,(02)28385850,臺北市士林區忠義街７０號,121.5314,25.10594
5901153058,誼安藥局,(02)28851899,臺北市士林區通河街４２號,121.5215,25.08044
5901153101,聖賢藥局,(02)28833046,臺北市士林區士商路５８號,121.52,25.09056
5901153245,大東健保藥局,(02)28834672,臺北市士林區大東路８６－４號,121.5257,25.09131
5901153263,健揚藥局,(02)28163698,臺北市士林區延平北路５段２５１號,121.5097,25.08483
5901153272,光榮藥局,(02)28136060,臺北市士林區社中街１１８號,121.5103,25.0899
5901153432,大南春天生活藥局,(02)28882196,臺北市士林區大南路３１７、３１９號,121.518,25.08888
5901153487,和謙藥局,(02)28165678,臺北市士林區社中街３６２號,121.5041,25.09242
5901153496,躍獅忠誠藥局,(02)28387948,臺北市士林區忠義街７０號,121.5314,25.10594
5901153503,祥新藥局,(02)28110906,臺北市士林區社子街６５號,121.5067,25.08751
5901153521,天母台安藥局,(02)28728017,臺北市士林區天母西路３４號,121.5262,25.11835
5901153567,華齡春天生活藥局,(02)28882156,臺北市士林區華齡街３６、３８號,121.5195,25.08359
5901153585,德行春天生活藥局,(02)28380306,臺北市士林區德行東路７６號,121.5275,25.1073
5901153610,家安健保藥局,(02)28322182,臺北市士林區德行東路１０９巷１１９號,121.5288,25.11156
5901153665,康佑藥局,(02)28119981,臺北市士林區延平北路５段１７６號,121.5103,25.08299
5901153674,愛佳藥局,(02)28811199,臺北市士林區承德路４段２２２之１號,121.5215,25.0885
5901153683,安奕藥局,(02)28133289,臺北市士林區葫蘆街３０巷１２號,121.5099,25.08034
5901153709,全予藥局,(02)28386955,臺北市士林區德行東路２２１號,121.5329,25.10938
5901153727,前港盛康藥局,(02)28831079,臺北市士林區前港街２８號,121.522,25.0846
5901153825,太和堂中西藥局,(02)28814122,臺北市士林區大東路７４號（實際使用：１樓）,121.5257,25.09037
5901153861,佩佩藥局,(02)28382662,臺北市士林區中山北路６段１８２號,121.5252,25.10759
5901153905,躍獅芝山藥局,(02)28365822,臺北市士林區福華路１５４號（實際使用：１樓）,121.5227,25.10357
5901153941,士東藥局,(02)28760588,臺北市士林區士東路９１巷３號,121.5291,25.11256
5901153969,杏一士林延平藥局,(02)28112937,臺北市士林區延平北路５段２５０號（１樓）、２５２號１樓,121.51,25.08468
5901153996,文昌春天藥局,(02)28838539,臺北市士林區文昌路４４號（１樓）,121.5216,25.09562
5901154000,文昌大藥局,(02)28376196,臺北市士林區文昌路７２號１樓,121.5213,25.09634
5901154019,忠義台安藥局,(02)28380685,臺北市士林區忠義街７２號１樓,121.5315,25.106
5901154028,向宇藥局,(02)88661101,臺北市士林區德行東路２１７號１樓,121.5328,25.10935
5901154055,天母盛康藥局,(02)28720208,臺北市士林區天母東路８巷８４號１樓,121.5304,25.11483
5901154073,中山盛康藥局,(02)28771887,臺北市士林區中山北路７段１６２號１樓,121.5327,25.12416
5901154082,德行盛康藥局,(02)28348756,臺北市士林區德行東路２０６之１號１樓,121.532,25.1089
5901154091,社正藥局,(02)28118704,臺北市士林區社正路１２號１樓,121.5093,25.08854
5901154108,藥本家藥局,(02)28766682,臺北市士林區中山北路７段１４巷２６號１樓,121.5328,25.11884
5901154135,誠泰中西藥局,(02)88112352,臺北市士林區永平街１３號１樓,121.5051,25.08996
5901154144,加赫藥局,(02)28336362,臺北市士林區文昌路７６號１樓,121.5212,25.09646
5901160044,石牌藥局,(02)28214986,臺北市北投區石牌路１段４９號,121.5106,25.1133
5901160053,天蓮藥局,(02)28211824,臺北市北投區石牌路１段１６６巷１１５號,121.5155,25.11192
5901160062,丸三大藥局,(02)28230637,臺北市北投區自強街１０５號,121.5153,25.11086
5901160099,進春藥局,(02)28216938,臺北市北投區明德路１５１號,121.5206,25.11086
5901160142,德昇藥局,(02)28217565,臺北市北投區裕民二路２０號,121.517,25.11604
5901160197,川秀藥局,(02)28270702,臺北市北投區石牌路２段９９巷９號１樓,121.5166,25.11792
5901160222,新祥藥局,(02)28582551,臺北市北投區知行路２０８號－１,121.4668,25.11935
5901160277,建民藥局,(02)28912339,臺北市北投區光明路１６１號,121.5027,25.13538
5901160286,昌源藥局,(02)28928695,臺北市北投區中央北路４段４８５號,121.4692,25.12843
5901160400,世全藥局,(02)28585378,臺北市北投區知行路２７３號,121.4672,25.12134
5901160428,九福藥局,(02)28953009,臺北市北投區公館路２３６號,121.5081,25.12612
5901160517,弘安藥局,(02)28206390,臺北市北投區懷德街３３號１樓,121.5193,25.11219
5901160544,黎明藥局,(02)28223795,臺北市北投區尊賢街２５３－１號,121.5066,25.11817
5901160562,名山藥局,(02)28226101,臺北市北投區東陽街４７５號１樓,121.5199,25.11231
5901160704,明華藥局,(02)28971056,臺北市北投區清江路８號（實際使用：１樓）,121.5015,25.13156
5901160802,美康藥局,(02)28281176,臺北市北投區明德路９０號１樓,121.5196,25.1094
5901161890,良興藥局,(02)28933360,臺北市北投區中和街２８６號,121.5004,25.14047
5901161934,康揚藥局,(02)28946520,臺北市北投區中和街３２２號,121.4998,25.14108
5901162119,祐鄰藥局,(02)28281232,臺北市北投區尊賢街２５０號,121.5073,25.11707
5901162173,小明藥局,(02)28928950,臺北市北投區中央南路１段６９號２樓,121.5014,25.13145
5901162182,祐民藥局,(02)28975339,臺北市北投區中央南路１段２０９號１樓,121.5011,25.12837
5901162306,上頤藥局,(02)28981230,臺北市北投區中和街３２７號１樓,121.4997,25.14097
5901162477,長宜藥局,(02)28216605,臺北市北投區自強街１１２號,121.5155,25.11074
5901162806,大家藥局,(02)28959000,臺北市北投區光明路１８２號,121.5033,25.13566
5901162833,維康藥局,(02)28206343,臺北市北投區石牌路２段１９１．１９３號,121.5184,25.11874
5901162879,杏嘉藥局,(02)28942585,臺北市北投區清江路６８號,121.5017,25.13044
5901163107,小豬藥局,(02)28217099,臺北市北投區東陽街４０３號１樓,121.5176,25.11244
5901163152,石牌健康人生藥局,(02)28225169,臺北市北投區石牌路２段１８７號,121.5183,25.11868
5901163214,鴻恩藥局,(02)28926410,臺北市北投區中央南路１段１２９號,121.5012,25.13015
5901163250,關渡松藥局,(02)28584824,臺北市北投區知行路２４７號,121.4671,25.12074
5901163269,佳祈健保藥局,(02)28232535,臺北市北投區明德路１４４號,121.5208,25.11047
5901163296,天禧大藥局,(02)28213558,臺北市北投區實踐街３５號,121.5087,25.11521
5901163330,萬信藥局,(02)28583083,臺北市北投區知行路３０５號（實際使用１樓）,121.4672,25.12214
5901163376,北投春天藥局,(02)28916668,臺北市北投區中央南路１段７６號,121.5011,25.13135
5901163394,致遠春天藥局,(02)28253258,臺北市北投區致遠一路１段１３２號１、２樓,121.5149,25.11051
5901163410,尊賢藥局,(02)28270505,臺北市北投區尊賢街２１２號,121.508,25.11551
5901163438,漢藥局,(02)28236598,臺北市北投區吉利街１４６號,121.508,25.11854
5901163465,振生大藥局,(02)28977292,臺北市北投區中央北路３段６１號,121.4847,25.13785
5901163492,全家藥粧藥局,(02)28988685,臺北市北投區光明路１６６－２號,121.5027,25.13508
5901163509,吉利春天生活藥局,(02)28253256,臺北市北投區吉利街１２０號,121.5068,25.11851
5901163527,理得藥局,(02)28289680,臺北市北投區石牌路１段１５０號,121.5131,25.11426
5901163536,天富大藥局,(02)28225812,臺北市北投區石牌路２段１７１號（實際使用：１樓）,121.518,25.11848
5901163545,天康大藥局,(02)28914265,臺北市北投區中央南路１段５７號,121.5014,25.13192
5901163554,良哲藥局,(02)28285516,臺北市北投區明德路１５７－４號（實際使用：１樓）,121.5209,25.11129
5901163563,躍獅光明藥局,(02)28915993,臺北市北投區光明路５１號、５３號（實際使用：１樓）,121.4998,25.13286
5901163572,永欣中西藥局,(02)28910307,臺北市北投區中和街５０１號,121.4947,25.1452
5901163581,陳藥師藥局,(02)28921971,臺北市北投區光明路２巷１３－２號（實際使用：１樓）,121.4997,25.13132
5901163616,江南育仁大藥局,(02)28981850,臺北市北投區育仁路５５號１樓,121.4981,25.13361
5901163634,心樂藥局,(02)28210261,臺北市北投區致遠一路２段１０５號１樓,121.5128,25.1131
5901163643,致遠盛康藥局,(02)28263580,臺北市北投區致遠二路１４１號１樓,121.5128,25.1173
5901163652,康賢藥局,(02)28219295,臺北市北投區西安街１段３５９號１樓,121.5153,25.11429
5901170022,良美藥局,(02)27593659,臺北市信義區福德街２６８巷３７號,121.5854,25.04033
5901170059,必欣藥局,(02)27225060,臺北市信義區松仁路２６４號,121.5696,25.02425
5901170139,福華藥局,(02)27208527,臺北市信義區吳興街２８１巷３號１樓,121.5643,25.02656
5901170184,臺陽藥局,(02)27283403,臺北市信義區大道路６１號,121.5823,25.04136
5901170264,杏康藥局,(02)23457422,臺北市信義區忠孝東路５段３７２巷２７弄６８－２號１Ｆ,121.5753,25.03976
5901170335,慧生藥局,(02)27647138,臺北市信義區松山路３１０號,121.5777,25.04256
5901170406,鼎泰藥局,(02)27620617,臺北市信義區基隆路１段１５５號１樓,121.5653,25.04222
5901170433,松山大藥局,(02)27620624,臺北市信義區永吉路４３６號,121.5781,25.04526
5901170648,立信藥局,(02)27687754,臺北市信義區松山路４０３號,121.578,25.04144
5901170906,吳興藥局,(02)27208328,臺北市信義區吳興街２７９號１樓,121.5642,25.02658
5901170915,杏仁藥局,(02)27262541,臺北市信義區大道路１３５號,121.5834,25.03901
5901172179,新和平藥局,(02)23460951,臺北市信義區虎林街１９８號１樓,121.5769,25.03844
5901172213,華泰藥局,(02)27601992,臺北市信義區虎林街８２巷５號,121.5769,25.04335
5901172240,德康大藥局,(02)27272502,臺北市信義區松山路５４１巷２１號,121.579,25.03794
5901172268,皇佳大藥局,(02)27269868,臺北市信義區松山路５４１巷１９號,121.5789,25.03793
5901172508,好康藥局,(02)27232979,臺北市信義區莊敬路４１４號,121.5662,25.02716
5901172544,麗中藥局,(02)27594416,臺北市信義區福德街２１７號,121.5847,25.03841
5901172580,文興藥局,(02)27590989,臺北市信義區福德街２４５號,121.5859,25.03874
5901172651,康杏藥局,(02)27591510,臺北市信義區福德街３０６號１樓,121.5874,25.03931
5901172697,綠杏大藥局,(02)27582378,臺北市信義區吳興街２４１號,121.5635,25.02745
5901172704,鴻濟藥局,(02)27645331,臺北市信義區永吉路３２６巷２號１樓,121.5754,25.04507
5901172740,信桉藥局,(02)87860005,臺北市信義區莊敬路２３６號,121.5621,25.0296
5901172820,安心藥局,(02)27474992,臺北市信義區永吉路３０巷１４８弄４之１號,121.5685,25.04266
5901172839,九州藥局,(02)87323331,臺北市信義區和平東路３段２３９號,121.5543,25.02294
5901172857,永吉藥局,(02)87874043,臺北市信義區永吉路２１３號,121.5739,25.04572
5901172924,躍獅松仁藥局,(02)27238626,臺北市信義區松仁路２３３號（實際營業地址：１樓）,121.5688,25.02617
5901172933,喜樂藥局,(02)27275797,臺北市信義區松德路１２５號,121.5753,25.03752
5901172964,榮泰藥局,(02)77296777,臺北市信義區光復南路４１９巷１９號,121.5582,25.03659
5901173041,皇昇大藥局,(02)27663488,臺北市信義區松山路２１０號１樓,121.5776,25.04509
5901173210,濟生中西藥局,(02)27358452,臺北市信義區崇德街４１號,121.5542,25.02436
5901173238,正和藥局,(02)23455186,臺北市信義區吳興街２２５巷６號,121.5634,25.02782
5901173283,上禾藥師藥局,(02)27592686,臺北市信義區林口街２７號,121.5792,25.03741
5901173372,新永春藥局,(02)27667385,臺北市信義區忠孝東路５段４２３巷１號,121.5753,25.04126
5901173390,馨馨藥局,(02)27491208,臺北市信義區虎林街８２巷１９號,121.5764,25.04336
5901173407,康怡健保藥局,(02)27206193,臺北市信義區吳興街４６７巷２弄１２號,121.5695,25.02381
5901173587,新興健保藥局,(02)27494892,臺北市信義區永吉路３０巷１１３號,121.5689,25.04324
5901173603,松德盛康藥局,(02)87891622,臺北市信義區松德路４０號,121.5767,25.03896
5901173694,洪暘藥局,(02)27337099,臺北市信義區富陽街８６號,121.5564,25.02127
5901173710,專品光復藥局,(02)27586682,臺北市信義區光復南路４６７之１號,121.5577,25.03384
5901173738,尚頤中西藥局,(02)27253818,臺北市信義區虎林街１４５號,121.5767,25.03959
5901173783,北一健康人生藥局,(02)27583945,臺北市信義區吳興街２５５號,121.5637,25.02715
5901173818,博亞藥局,(02)27580506,臺北市信義區莊敬路４６２號,121.5677,25.02672
5901173845,躍獅永吉藥局,(02)27658924,臺北市信義區永吉路５２０號,121.5804,25.04521
5901173854,杏一後山埤藥局,(02)27274357,臺北市信義區忠孝東路５段７７８號（實際營業地址：１樓）,121.5816,25.0434
5901173863,立赫北醫藥局,(02)27320100,臺北市信義區吳興街１１８巷２６弄１７號,121.5599,25.03007
5901173872,柏愛藥局,(02)27325472,臺北市信義區基隆路２段１３１之９號,121.5567,25.02788
5901173881,壹間藥師藥局,(02)27672833,臺北市信義區虎林街１２０巷１４８號,121.5742,25.04213
5901173925,杏一光復藥局,(02)87804626,臺北市信義區光復南路４４９之１號,121.5578,25.03488
5901173934,躍獅光復藥局,(02)87862307,臺北市信義區光復南路４１７之８號,121.5577,25.03682
5901173943,躍獅興雅藥局,(02)87808429,臺北市信義區松德路１２８號,121.5745,25.03734
5901173961,北一忠孝藥局,(02)23464588,臺北市信義區忠孝東路５段５２４巷１弄１６號１樓,121.5802,25.04133
5901174002,吳興春天藥局,(02)27585618,臺北市信義區吳興街１３７號１樓,121.5618,25.02947
5901174011,寶春藥局,(02)27566501,臺北市信義區虎林街１１９之１９號１樓,121.5771,25.04112
5901174039,日安藥局,(02)27203775,臺北市信義區松仁路２４０巷１３號１樓,121.5691,25.02454
5901174057,詠晴中西藥局,(02)27266890,臺北市信義區松山路４８４之４號（１樓含夾層）,121.5778,25.0389
5901174066,愛維喜藥局,(02)27586989,臺北市信義區莊敬路２７８號１樓,121.5627,25.02882
5901174075,信義盛康藥局,(02)23460521,臺北市信義區永吉路２８６號（１樓）,121.5744,25.04538
5901174084,市政藥局,(02)27560050,臺北市信義區忠孝東路５段１６９號１樓、１７１號１樓,121.5688,25.0412
5901180037,崇信藥局,(02)23417557,臺北市中正區齊東街８８號,121.5272,25.04162
5901180055,日生大藥局,(02)23031393,臺北市中正區汀州路１段５３號１樓,121.5076,25.03026
5901180126,民生藥局,(02)23416470,臺北市中正區濟南路２段４５－１號１樓,121.5305,25.0406
5901180206,大安藥局,(02)23213186,臺北市中正區新生南路１段１０６號,121.5326,25.03969
5901180215,上海聯合藥局,(02)23117744,臺北市中正區衡陽路３２號１樓,121.5126,25.04221
5901180224,中心藥局,(02)23689889,臺北市中正區汀州路３段１２１號,121.5303,25.01654
5901180304,祥全藥局,(02)23939339,臺北市中正區信義路２段７９巷１５－８號１Ｆ,121.527,25.03545
5901180322,南昌大藥局,(02)23510322,臺北市中正區南昌路１段８６號１樓,121.5174,25.03086
5901180368,古亭藥局,(02)23683618,臺北市中正區汀州路３段１１７號,121.5301,25.01667
5901182068,永興藥局,(02)23050986,臺北市中正區汀州路１段９２巷２８號,121.5068,25.02999
5901182086,國杏藥師示範藥局,(02)23811322,臺北市中正區延平南路１７１巷３號,121.5079,25.03487
5901182111,東華藥局,(02)23640852,臺北市中正區汀州路３段１１３號,121.53,25.01673
5901182228,合泰大藥局,(02)23899977,臺北市中正區衡陽路２６號,121.5129,25.04221
5901183323,和平藥局,(02)23755303,臺北市中正區中華路２段４３號,121.5064,25.03508
5901183387,丞良藥局,(02)33938868,臺北市中正區南昌路１段７８號地下１樓,121.5173,25.03099
5901183396,慶安藥局,(02)23582385,臺北市中正區徐州路２６號,121.5234,25.04061
5901183510,怡誠藥局,(02)23626905,臺北市中正區汀州路２段２１２號,121.5237,25.02236
5901183529,達昌藥局,(02)23390109,臺北市中正區汀州路１段２０７號,121.5116,25.02692
5901183645,大愛生活藥局,(02)23661155,臺北市中正區汀州路２段２３２號,121.5243,25.02189
5901183789,佑康大藥局,(02)23683602,臺北市中正區汀州路２段６４號,121.5184,25.02513
5901183798,佳和藥局,(02)23117102,臺北市中正區黎明里公園路３０號,121.5169,25.04448
5901183985,正康藥局,(02)23712831,臺北市中正區漢口街１段２２號,121.5142,25.04507
5901184071,進達健保藥局,(02)23039829,臺北市中正區中華路２段４５３號,121.5096,25.0249
5901184080,活力健康藥妝藥局,(02)23392625,臺北市中正區中華路２段３１５巷１號,121.5062,25.02795
5901184106,信康藥局,(02)23961979,臺北市中正區南昌路１段１４３號,121.5186,25.02953
5901184179,保德中華藥局,(02)23027720,臺北市中正區中華路２段１５９號,121.5042,25.03101
5901184213,71恩典藥局,(02)23223371,臺北市中正區信義路２段７１號,121.5264,25.03466
5901184222,豐仁藥局,(02)23033908,臺北市中正區寧波西街１６１號,121.5109,25.02736
5901184240,立赫健保藥局,(02)33223231,臺北市中正區新生南路１段１６之２號,121.5326,25.04323
5901184366,宏越藥局,(02)23050880,臺北市中正區中華路２段３１３巷４號,121.5061,25.02813
5901184375,大盛藥局,(02)23713838,臺北市中正區中華路１段２１巷１６號,121.5105,25.04645
5901184446,北車維康藥局,(02)23613623,臺北市中正區青島西路１１號,121.5178,25.04499
5901184473,中力藥局,(02)23313768,臺北市中正區襄陽路１３之５號、１５號,121.5155,25.04349
5901184491,躍獅南門藥局,(02)23141111,臺北市中正區中華路２段３９巷１０號,121.5074,25.03484
5901184535,桐心藥局,(02)23581663,臺北市中正區金華街１８之６號１樓,121.5202,25.03175
5901184553,珍忻藥局,(02)23965115,臺北市中正區南昌路１段６５號,121.5174,25.03107
5901184562,博昱連雲藥局,(02)23581898,臺北市中正區連雲街７２號、７２之１號,121.53,25.03455
5901184599,長頸鹿藥師藥局,(02)23962120,臺北市中正區南昌路１段１３２號,121.5183,25.02955
5901184606,躍獅南寧藥局,(02)23967072,臺北市中正區南昌路１段８１號,121.5178,25.03057
5901184633,躍獅東門藥局,(02)23920339,臺北市中正區金山南路１段１０８之１號（１樓）,121.5273,25.03538
5901184642,康呈安藥局,(02)23672215,臺北市中正區汀州路２段１８７號１樓,121.522,25.02403
5901184651,立赫臺大藥局,(02)23616162,臺北市中正區公園路２８號１樓,121.517,25.04485
5901184660,南昌春天藥局,(02)23972886,臺北市中正區南昌路１段１５７號１樓,121.5188,25.02927
5901184679,汀州藥局,(02)23090705,臺北市中正區汀州路１段１８７、１８９、１９１號（１樓）,121.5112,25.02704
5901184697,中英大藥局,(02)23617551,臺北市中正區永綏街６號１樓,121.5112,25.043
5901184713,建祥武昌藥局,(02)23314038,臺北市中正區武昌街１段２９號１樓,121.5121,25.04416
5901190024,長泰藥局,(02)23012869,臺北市萬華區西園路２段２８０號,121.4942,25.02753
5901190033,世欣藥局,(02)23074263,臺北市萬華區東園街１７３號１Ｆ,121.4973,25.02419
5901190079,建和藥局,(02)23010838,臺北市萬華區青年路１６８巷４４號,121.5016,25.01987
5901190177,信昌藥局,(02)23054898,臺北市萬華區長泰街３６號１樓,121.5007,25.02336
5901190220,生活大藥局,(02)23618609,臺北市萬華區貴陽街２段１２４號,121.5025,25.03995
5901190284,民鈺藥局,(02)23084270,臺北市萬華區環河南路２段１３９號１樓,121.4933,25.03396
5901190426,皇祥藥局,(02)23375676,臺北市萬華區萬青街１６５號１樓,121.5016,25.02279
5901190515,日昇藥局,(02)23062975,臺北市萬華區廣州街１２４號,121.5016,25.03654
5901190668,聯慶大藥局,(02)23039850,臺北市萬華區萬大路３０６號１樓,121.5003,25.02495
5901190686,信義藥局,(02)23074599,臺北市萬華區青年路２８號,121.5052,25.02581
5901190784,欣安藥局,(02)23327830,臺北市萬華區東園街１９０、１９２號,121.4983,25.02177
5901192162,寶興大藥局,(02)23013375,臺北市萬華區寶興街１１９號,121.4948,25.02529
5901192180,康之友藥局,(02)23011598,臺北市萬華區青年路２０號,121.5055,25.02592
5901192448,健誠大藥局,(02)23042223,臺北市萬華區環河南路２段１８５號,121.4919,25.03246
5901192546,躍獅西園藥局,(02)23094063,臺北市萬華區西園路２段２６０號,121.4946,25.02784
5901192822,專品藥局,(02)23718892,臺北市萬華區長沙街２段７１－１號,121.5051,25.04062
5901192975,萬華藥局,(02)23012221,臺北市萬華區萬大路２４８號實際營業地址１樓、２樓,121.5003,25.02626
5901193070,榮勝藥局,(02)23331121,臺北市萬華區萬大路２３３號,121.5006,25.02649
5901193105,安誠貴陽藥局,(02)23812190,臺北市萬華區貴陽街２段１４８號,121.5016,25.04017
5901193123,千誠北護藥局,(02)23123530,臺北市萬華區內江街１１４號,121.5034,25.04152
5901193132,松本藥局,(02)23029559,臺北市萬華區西昌街２３３號,121.5007,25.03723
5901193150,日森人文藥局,(02)23082100,臺北市萬華區和平西路３段１４９號,121.4988,25.03543
5901193169,柏祥藥局,(02)23018272,臺北市萬華區西藏路１４１號,121.5017,25.02944
5901193196,青年宏越藥局,(02)23011037,臺北市萬華區青年路４４號,121.5042,25.0255
5901193221,正盛藥局,(02)23050386,臺北市萬華區中華路２段４３４－１號,121.5064,25.02708
5901193230,啟仁藥局,(02)23362771,臺北市萬華區環河南路２段１７７號,121.492,25.03259
5901193249,光華藥局,(02)23613609,臺北市萬華區華西街１９－５號,121.4985,25.03892
5901193301,富安藥局,(02)23377878,臺北市萬華區萬大路４２６號,121.4981,25.02096
5901193310,和德藥局,(02)23331522,臺北市萬華區西園路２段２９２號１樓,121.4935,25.02698
5901193329,西園宏越藥局,(02)23097336,臺北市萬華區西園路２段２１３號,121.4942,25.02714
5901193338,艾米力藥師藥局,(02)23036583,臺北市萬華區西藏路１０７－２號１樓,121.5035,25.02955
5901193365,企鵝藥局,(02)23884691,臺北市萬華區西昌街１７５號（１樓）,121.5007,25.03886
5901200105,建興藥局,(02)29399993,臺北市文山區木柵路２段８１號１樓,121.561,24.98889
5901200114,健群藥局,(02)29328898,臺北市文山區景興路４１號,121.5448,24.99717
5901200123,瑞安藥局,(02)29312888,臺北市文山區溪口街６９－１號１樓,121.5393,24.99512
5901200141,景美藥局,(02)29335741,臺北市文山區景文街１２５號,121.5412,24.99033
5901200490,永明大藥局,(02)29314428,臺北市文山區興隆路１段２９７號１樓,121.5449,24.99875
5901200534,日信專業藥局,(02)86618322,臺北市文山區木柵路２段１３９號１樓,121.5625,24.98906
5901201540,逸仙藥師藥局,(02)29312597,臺北市文山區興隆路２段２１８－１號１樓,121.5524,25.00148
5901201568,康宜庭生活藥局,(02)29385363,臺北市文山區興隆路４段６４號,121.5613,24.98514
5901201728,東京晟藥局,(02)29356354,臺北市文山區辛亥路４段９７號,121.5587,25.00684
5901201826,舒博威藥局,(02)29306805,臺北市文山區興隆路２段９５巷３號,121.547,24.99952
5901201835,巧康藥局,(02)29372061,臺北市文山區木新路３段２６２、２６４號,121.5585,24.98132
5901201871,佳醫景美藥局,(02)86636659,臺北市文山區羅斯福路６段２９０號,121.5398,24.991
5901202047,華君藥局,(02)29319510,臺北市文山區興隆路２段６０號,121.5478,24.99955
5901202216,皇興藥師藥局,(02)29365553,臺北市文山區木柵路２段１２１號,121.5621,24.98901
5901202396,宇康藥局,(02)29307066,臺北市文山區羅斯福路５段２１８巷７號,121.5383,25.00203
5901202627,杏隆藥局,(02)29313151,臺北市文山區羅斯福路５段２６１號,121.5395,25.00115
5901202645,永源大藥局,(02)22396166,臺北市文山區興隆路３段３０２號,121.5588,24.99312
5901202654,康宜庭萬隆藥局,(02)29348662,臺北市文山區羅斯福路５段２０２號,121.5384,25.00322
5901202681,振大藥局,(02)29393385,臺北市文山區永安街２２巷１６號,121.5697,24.98683
5901202752,躍獅奕新藥局,(02)22340378,臺北市文山區木新路２段２７５號,121.566,24.98292
5901202789,宜康藥局,(02)86619862,臺北市文山區保儀路７號,121.5686,24.98872
5901202841,欣安景美藥局,(02)29316008,臺北市文山區景文街７７號,121.5414,24.99126
5901202850,北一藥師藥局,(02)22348686,臺北市文山區木新路３段４７號,121.5642,24.98236
5901202949,萬隆大藥局,(02)29334580,臺北市文山區羅斯福路５段２１８巷１５號,121.538,25.00203
5901202958,杏一萬安藥局,(02)22302126,臺北市文山區萬安街１５號,121.5706,25.00139
5901203044,木新健康人生藥局,(02)86611465,臺北市文山區木新路３段２０３號,121.5598,24.9814
5901203062,大樹文山藥局,(02)29342226,臺北市文山區興隆路３段１３號（１、２、３樓）,121.555,25.00088
5901203080,杏一木柵藥局,(02)29371839,臺北市文山區木柵路３段９８號,121.5674,24.98861
5901203106,光明大藥局,(02)29390275,臺北市文山區忠順街１段６６號,121.5607,24.98426
5901203124,福興藥局,(02)89313868,臺北市文山區福興路５６號,121.5505,25.00345
5901203160,路加健康藥局,(02)29302336,臺北市文山區興隆路２段２２０巷３９號,121.5522,25.00022
5901203179,健安藥局,(02)29323757,臺北市文山區景興路１６５號,121.5447,24.99346
5901203188,逸全生活藥局,(02)29326185,臺北市文山區羅斯福路５段２２２號,121.5388,25.00197
5901203204,躍獅新芳藥局,(02)29308172,臺北市文山區興隆路３段１６號（實際營業地址：１樓）,121.5549,25.00062
5901203213,綠杏萬芳藥局,(02)29349516,臺北市文山區興隆路３段１１１號,121.5583,25.00031
5901203268,躍獅木柵藥局,(02)86617752,臺北市文山區指南路１段２８號,121.5695,24.98756
5901203295,專品政大藥局,(02)22343010,臺北市文山區指南路２段８號,121.5742,24.98784
5901203366,大樹木柵藥局,(02)22340110,臺北市文山區木柵路３段１０８號、１１０號（１樓、２樓）,121.5676,24.98866
5901203375,大樹景美藥局,(02)29322951,臺北市文山區羅斯福路６段２３４之１號,121.5404,24.99244
5901203393,躍獅景新藥局,(02)29356221,臺北市文山區羅斯福路６段３０號１樓,121.5396,24.99978
5901203400,富康活力睦新藥局,(02)29393666,臺北市文山區木新路３段２１６號,121.5595,24.98153
5901203419,康宜庭興隆藥局,(02)22304866,臺北市文山區興隆路３段２００號１樓,121.559,24.99779
5901203428,康宜庭景文藥局,(02)29302801,臺北市文山區景文街９７號１樓,121.5413,24.99093
5901203446,景華盛康藥局,(02)29310188,臺北市文山區景華街６９號１樓,121.545,24.99524
5901203455,全球萬芳藥局,(02)89352147,臺北市文山區興隆路３段６３號（１樓）,121.5562,25.00024
5901203464,大愛幸福藥局,(02)29379977,臺北市文山區木新路２段２２１號１樓,121.5675,24.98344
5901203473,晴天藥局,(02)29363131,臺北市文山區萬壽路１５號（１樓）,121.576,24.98811
5901203482,健康家藥局,(02)29330858,臺北市文山區興隆路２段１３３號１樓,121.5481,25.00011
5902010025,南京藥局,(07)5514652,高雄市鹽埕區建國四路３８７號,120.284,22.63279
5902010132,宏恩藥局,(07)5211318,高雄市鹽埕區教仁里瀨南街１３３號,120.2823,22.62472
5902011291,長庚藥局,(07)5513436,高雄市鹽埕區五福四路１６３號一樓,120.2834,22.62347
5902011308,昇安藥局,(07)5216438,高雄市鹽埕區瀨南街２２５號１樓,120.284,22.62797
5902020012,永松藥局,(07)5810657,高雄市鼓山區鼓山三路１３０－１５號,120.2802,22.66454
5902021153,世和藥局,(07)5522566,高雄市鼓山區華豐里華夏路１９５號,120.2959,22.66936
5902021233,崧柏藥局,(07)5542027,高雄市鼓山區華榮路５４３號,120.2937,22.66969
5902021377,藍玉藥局,(07)5837528,高雄市鼓山區鼓峰里九如四路２００２號,120.2861,22.66774
5902022669,惠民藥局,(07)5833228,高雄市鼓山區九如四路１４２６號,120.2793,22.6587
5902022794,定國藥局,(07)5815858,高雄市鼓山區九如四路１１３５號,120.2791,22.65936
5902022801,裕康中西大藥局,(07)5555352,高雄市鼓山區裕誠路１５１９號,120.2951,22.66479
5902022829,弘興藥局,(07)5612677,高雄市鼓山區鼓山三路４８－１１號,120.2757,22.65468
5902022874,康爾喜藥局,(07)5222650,高雄市鼓山區慶豐街５０號,120.2935,22.66647
5902022972,高雄藥局,(07)5214266,高雄市鼓山區九如四路９２４號,120.2793,22.65466
5902030063,紅心藥局,(07)3416697,高雄市左營區崇德路２５５號,120.3041,22.67535
5902030090,宏仁藥局,(07)5817895,高雄市左營區左營大路３９０號,120.2932,22.68702
5902030269,立文藥局,(07)5572899,高雄市左營區立文路５４號,120.3058,22.66458
5902030287,慈德藥局,(07)3416212,高雄市左營區重愛路５３號,120.3186,22.68308
5902030312,吉辰藥局,(07)5815069,高雄市左營區左營大路４１之１號,120.2876,22.68109
5902030410,重仁藥局,(07)5824083,高雄市左營區左營大路４０８號,120.2935,22.68725
5902030634,有機藥局,(07)3596429,高雄市左營區榮耀街３號,120.3216,22.67935
5902030643,新高橋藥局,(07)3100696,高雄市左營區民族一路１０２８號,120.3201,22.68255
5902031999,平安藥局,(07)5833688,高雄市左營區中華一路５之１號,120.287,22.66961
5902032174,光明健保藥局,(07)5812499,高雄市左營區翠華路６０１巷８３號,120.2893,22.67277
5902032218,和信藥師健保藥局,(07)3419363,高雄市左營區崇德路２６７號,120.3037,22.6756
5902032432,威林藥局,(07)3414243,高雄市左營區華夏路７２１號,120.3023,22.67845
5902032441,健怡藥局,(07)5821891,高雄市左營區翠峰路４０號,120.2897,22.67229
5902032450,可達藥局,(07)3420182,高雄市左營區榮德街１７７號,120.3205,22.68359
5902032487,必健藥局,(07)5584259,高雄市左營區自由二路９０號,120.309,22.65954
5902032530,杏光藥局,(07)5837060,高雄市左營區果峰街４７巷１號１樓,120.2869,22.6703
5902032647,健智美藥局,(07)5580888,高雄市左營區富國路９８號,120.3068,22.6591
5902032674,辰暘藥局,(07)5588545,高雄市左營區富民路１２０號１、２樓,120.3054,22.66066
5902040014,成吉藥局,(07)3513339,高雄市楠梓區楠梓東街７４號,120.3301,22.72966
5902040041,橘井藥局,(07)3511869,高雄市楠梓區楠梓路１２９號,120.3286,22.73026
5902040050,富翔藥局,(07)3516365,高雄市楠梓區常德路３０７號,120.337,22.73691
5902040069,新友藥局,(07)3653534,高雄市楠梓區萬昌路１１１號,120.2895,22.71194
5902040087,世詠藥局,(07)3539869,高雄市楠梓區楠都東街１３８號,120.3262,22.72532
5902040112,丁丁楠梓藥局,(07)3533743,高雄市楠梓區建楠路１３０、１３２、１３４號,120.3247,22.72731
5902040185,東初藥局,(07)3511261,高雄市楠梓區楠梓路３２號,120.33,22.72873
5902040210,益民藥局,(07)3522161,高雄市楠梓區建楠路４７號,120.3287,22.72659
5902040229,進昇藥局,(07)3652334,高雄市楠梓區德賢路２０２號,120.3068,22.72694
5902040498,順明藥局,(07)3615574,高雄市楠梓區和光街６５號,120.2939,22.70717
5902040532,聯亞藥局,(07)3638387,高雄市楠梓區軍校路７１０號,120.293,22.70779
5902041226,正人藥師藥局,(07)3652942,高雄市楠梓區和昌里軍校路６７２號,120.293,22.70707
5902042376,佶辰藥局,(07)3662802,高雄市楠梓區德民路６４１號１Ｆ,120.2962,22.72237
5902042447,建佑藥局,(07)3626893,高雄市楠梓區右昌街１９１號,120.2889,22.71153
5902042474,誠群藥局,(07)3661733,高雄市楠梓區樂群路１８２號１樓,120.297,22.71914
5902042492,合德中西藥師藥局,(07)3581291,高雄市楠梓區楠梓路４８６號,120.3244,22.73812
5902042563,天健藥局,(07)3634179,高雄市楠梓區後昌路１０８７號,120.2922,22.71718
5902042661,元春中西藥師藥局,(07)3605656,高雄市楠梓區後昌路８３７巷３７號,120.294,22.71109
5902042769,家安藥局,(07)3600066,高雄市楠梓區後昌新路１３號１樓,120.2917,22.71844
5902050092,明曜藥局,(07)3803807,高雄市三民區澄和路９６號,120.3441,22.64481
5902050298,瑞鶴藥局,(07)3862757,高雄市三民區寶德里義德路２５號,120.3352,22.64301
5902050350,日星藥局,(07)3845188,高雄市三民區寶龍里惠德街３８號,120.3241,22.64741
5902050378,安成藥局,(07)3229295,高雄市三民區察哈爾二街６３號,120.301,22.64766
5902050412,春仁藥局,(07)3962341,高雄市三民區覺民路２２５號,120.3391,22.63944
5902050467,人禾藥局,(07)3215681,高雄市三民區達仁里九如二路３２４號,120.3036,22.64137
5902050565,澄和藥局,(07)3923111,高雄市三民區澄和路６６號,120.3445,22.64474
5902050592,建昌藥局,(07)3232356,高雄市三民區十全一路１０５號１樓,120.3105,22.64469
5902050636,嘉益藥局,(07)3110157,高雄市三民區重慶街３０號,120.302,22.64223
5902050770,仁生藥局,(07)3118765,高雄市三民區民享里熱河二街７８號,120.3006,22.64431
5902050798,友泰藥局,(07)3125236,高雄市三民區中和街１６９號,120.2868,22.6388
5902050903,皇安藥局,(07)3866779,高雄市三民區九如一路４６１號,120.3296,22.63865
5902051222,利民藥局,(07)3125436,高雄市三民區孝順街７４號,120.3128,22.6431
5902051240,明皇藥局,(07)3860121,高雄市三民區寶國里義華路１８１號,120.3399,22.64276
5902051268,上正藥師藥局,(07)2223355,高雄市三民區憲政路２５５號,120.3185,22.63647
5902051642,安寧藥局,(07)3217585,高雄市三民區嫩江街３９號,120.2981,22.64208
5902051786,億生藥局,(07)2873436,高雄市三民區南台路２００號,120.2982,22.63706
5902051866,久大藥局,(07)3858116,高雄市三民區本文里立忠路３２號１Ｆ,120.3253,22.65318
5902053833,建銘藥局,(07)3133460,高雄市三民區吉林街２６２號,120.3068,22.64818
5902054689,善全藥局,(07)3960269,高雄市三民區義華路３９１號,120.3332,22.64339
5902054858,勝發藥局,(07)3474780,高雄市三民區金鼎路３５０號,120.3197,22.66521
5902056638,柏仁藥局,(07)3976016,高雄市三民區覺民路５０４號,120.3317,22.64092
5902056718,岱安藥局,(07)3219946,高雄市三民區熱河二街２３號,120.3018,22.6439
5902056754,大家藥局,(07)3107632,高雄市三民區鼎中路２２９號１樓,120.3191,22.66421
5902056807,長慶藥局,(07)3105835,高雄市三民區金鼎路３１０號,120.3207,22.66513
5902057126,民安藥局,(07)3121381,高雄市三民區嫩江街７０號,120.2985,22.64282
5902057144,欣仁惠藥局,(07)3837833,高雄市三民區大昌二路２４８號,120.3323,22.64529
5902057288,育英藥局,(07)3824467,高雄市三民區灣子里和順街３９號,120.3159,22.65336
5902057368,崧民藥師藥局,(07)3102496,高雄市三民區金鼎路２２８號,120.3238,22.66483
5902057484,永勝藥局,(07)3814643,高雄市三民區褒忠街１１４號,120.334,22.64262
5902057493,上泰藥局,(07)3987396,高雄市三民區鼎山街５６９號,120.3177,22.65148
5902057519,伍陸藥局,(07)3890676,高雄市三民區正興路９４號,120.3208,22.64597
5902057546,華南藥局,(07)3127483,高雄市三民區中和街１２４號,120.2878,22.63941
5902057680,健爾康藥局,(07)3965658,高雄市三民區正興路２３號,120.3226,22.6456
5902057831,愛橋藥局,(07)3945146,高雄市三民區陽明路１９２號,120.3422,22.64207
5902057902,利安藥局,(07)3965550,高雄市三民區建工路５４５號,120.3213,22.64854
5902057920,必好藥局,(07)3851751,高雄市三民區義華路４６０號,120.3313,22.64356
5902057939,朝陽健保藥局,(07)3839886,高雄市三民區陽明路５７號１樓,120.341,22.63871
5902060025,連作藥局,(07)2154716,高雄市新興區大同一路２０３－１號,120.3003,22.62856
5902060150,永明藥局,(07)2619832,高雄市新興區仁智街２２３號,120.3027,22.62084
5902061540,長青藥局,(07)2223969,高雄市新興區六合路１１４號,120.3159,22.63223
5902061899,元盛藥局,(07)2228183,高雄市新興區六合路１５３號,120.3149,22.63186
5902071528,岩生藥局,(07)2863608,高雄市前金區自立一路１５－１號,120.2975,22.63437
5902071537,大衛藥局,(07)2859958,高雄市前金區中華三路１８８號,120.295,22.63218
5902071546,中華藥局,(07)2712779,高雄市前金區中華四路３６３號,120.2987,22.62137
5902080036,瑞林藥局,(07)3312146,高雄市苓雅區興中一路２８２號,120.3056,22.6162
5902080312,正和藥局,(07)2265377,高雄市苓雅區福建街３６２號,120.3138,22.6266
5902080465,廣德泰藥局,(07)3340769,高雄市苓雅區苓雅二路７６號,120.2997,22.61762
5902080474,弘宗藥局,(07)7211088,高雄市苓雅區武智街２號,120.3356,22.62303
5902080518,福海藥局,(07)7618855,高雄市苓雅區武慶三路５８號,120.332,22.61958
5902080545,柏松藥局,(07)7119786,高雄市苓雅區輔仁路１７５號,120.3332,22.63065
5902080616,一加藥局,(07)7212748,高雄市苓雅區和平一路四二號,120.3218,22.62093
5902080803,功安中西大藥局,(07)7215949,高雄市苓雅區三多二路２９１號,120.3195,22.61858
5902080858,福興藥局,(07)3331862,高雄市苓雅區成功一路５２號,120.2983,22.6131
5902081015,明群藥局,(07)7254953,高雄市苓雅區英明路５４號,120.3253,22.61276
5902081186,寶麒藥局,(07)7610355,高雄市苓雅區三多一路１４４號,120.3315,22.62306
5902081328,東信藥局,(07)7613309,高雄市苓雅區三多一路１８９號,120.3313,22.62258
5902083457,順一藥局,(07)3330011,高雄市苓雅區田西里成功一路２１０號,120.2969,22.61696
5902083582,健智藥局,(07)7249153,高雄市苓雅區四維二路９６之２號,120.3192,22.62258
5902083591,晨安藥局,(07)3365463,高雄市苓雅區興中一路１６０號,120.3096,22.61753
5902084703,瑞生藥局,(07)3305239,高雄市苓雅區自強三路３１號,120.2996,22.61376
5902084749,琉璃光藥師藥局,(07)7160930,高雄市苓雅區四維一路２９２號之一樓,120.3244,22.6242
5902084785,新良安藥局,(07)3386980,高雄市苓雅區苓雅二路１０６號,120.2987,22.61731
5902084801,邱吉祥藥局,(07)2226055,高雄市苓雅區凱旋二路１３５號,120.3218,22.62917
5902085031,上好藥局,(07)7266863,高雄市苓雅區四維一路六三號一樓,120.3294,22.6257
5902085148,召祐健保藥局,(07)7493719,高雄市苓雅區正義路９３號,120.3385,22.63037
5902085166,景福藥局,(07)7719152,高雄市苓雅區和平一路１４７之５號,120.3204,22.62364
5902085184,惠春藥局,(07)7611358,高雄市苓雅區武慶三路９６號,120.3319,22.62043
5902085228,永森藥局,(07)7163087,高雄市苓雅區建國一路２９０號,120.3262,22.63308
5902085308,幸福藥師藥局,(07)5368701,高雄市苓雅區青年一路１６７－３號,120.3079,22.62172
5902085344,意祥藥局,(07)7224835,高雄市苓雅區武廟路１４２之１號,120.3276,22.63125
5902085371,加和藥局,(07)7219332,高雄市苓雅區和平一路１４３之７號,120.3205,22.62331
5902090032,全國大藥局,(07)3345775,高雄市前鎮區三多二路４０３號１樓,120.3166,22.61777
5902090087,久億藥局,(07)7619333,高雄市前鎮區保泰路３５１號,120.3341,22.60289
5902090121,意文藥局,(07)7226570,高雄市前鎮區瑞華里武營路１８３號,120.3374,22.60991
5902090167,勝惠藥局,(07)3354766,高雄市前鎮區忠孝里三多三路７１號,120.3122,22.6163
5902090765,家安大藥局,(07)7137711,高雄市前鎮區崗山南街３４２巷２１號,120.3323,22.6021
5902090827,博平藥局,(07)8311814,高雄市前鎮區草衙二路３７７號,120.3224,22.57808
5902091100,佳加藥局,(07)7228112,高雄市前鎮區瑞北路１１４號,120.3325,22.60923
5902091128,北京藥局,(07)7113100,高雄市前鎮區公正路３１號,120.3322,22.60291
5902092205,百宏中西大藥局,(07)3386719,高雄市前鎮區復興三路１９４號,120.3117,22.61311
5902092296,迎廣藥局,(07)3321466,高雄市前鎮區林森三路１５０號２樓,120.3089,22.61357
5902092321,彥芳藥局,(07)3302007,高雄市前鎮區長江街６５號１樓,120.3156,22.60993
5902092410,旺盛藥局,(07)7512899,高雄市前鎮區永豐路１０８號,120.3337,22.6065
5902092492,元生藥局,(07)8156356,高雄市前鎮區鎮興路２２６號１樓,120.3117,22.59305
5902092554,協和藥局,(07)5377769,高雄市前鎮區中華五路９８３號,120.306,22.60221
5902092643,晏昇藥局,(07)7235136,高雄市前鎮區凱旋三路８１號,120.3247,22.60678
5902092896,廣泰藥局,(07)7162166,高雄市前鎮區瑞北路５６號,120.3346,22.60931
5902092910,健家藥局,(07)3389986,高雄市前鎮區二聖二路４５號,120.3165,22.61293
5902092956,慈濟健保藥局,(07)8159788,高雄市前鎮區鎮州路２１１號,120.3082,22.58819
5902100033,旗后藥局,(07)5715838,高雄市旗津區中洲三路７１５號,120.2705,22.61096
5902100042,千佑藥局,(07)5712619,高雄市旗津區復興里中洲三路５１３號,120.2736,22.60608
5902110066,文祺藥局,(07)8014066,高雄市小港區正苓里平治街１１２號,120.3543,22.56743
5902110093,鳳明中西大藥局,(07)8011846,高雄市小港區二苓路２４７號,120.3477,22.56534
5902110299,大裕藥局,(07)8211467,高雄市小港區小港里小港路２６１號,120.3359,22.56386
5902110422,臨生藥局,(07)8711290,高雄市小港區鳳鳴路１４６－４號,120.3588,22.51445
5902110593,慈林藥局,(07)8718087,高雄市小港區鳳林路９３號,120.3464,22.52635
5902110600,高泰藥局,(07)7930043,高雄市小港區桂陽路７號,120.3584,22.58144
5902110628,悅是康藥局,(07)8010012,高雄市小港區漢民路２７６號,120.3536,22.56665
5902111670,桂林活力藥師藥局,(07)7931248,高雄市小港區桂陽路４０號,120.3575,22.58194
5902111796,力安藥師藥局,(07)7918167,高雄市小港區桂陽路316號１樓,120.3522,22.58211
5902111938,丁丁藥局小港店,(07)8603388,高雄市小港區宏平路８５號,120.3635,22.57096
5903010038,金宏健保藥局,(04)25288262,臺中市豐原區安康路１０３號,120.7258,24.24303
5903010127,友誠藥局,(04)25132371,臺中市豐原區豐東路４０１號１樓,120.7336,24.25457
5903010145,維立藥局,(04)25337605,臺中市豐原區豐南街２號１樓,120.7118,24.23956
5903010181,永豐藥局,(04)25280088,臺中市豐原區中山路４２２號１樓,120.7153,24.24733
5903010261,豐原西勢藥局,(04)25262330,臺中市豐原區西勢路２００號１樓,120.7067,24.24379
5903010270,福心藥局,(04)25229292,臺中市豐原區中正路７１５號１樓,120.7014,24.2491
5903010289,心美日藥局,(04)25260703,臺中市豐原區中山路３５９號１樓,120.7149,24.24929
5903010341,昭仁藥局,(04)25243559,臺中市豐原區南陽路１４０號,120.7307,24.24275
5903010350,甲蒂健保藥局,(04)25256028,臺中市豐原區豐東路３０８號,120.7331,24.25093
5903010449,豐原藥局,(04)25260119,臺中市豐原區新生北路２０６號之１（１樓）,120.7219,24.2551
5903010458,心之藥局,(04)25254959,臺中市豐原區中山路５０４號,120.7149,24.25009
5903010485,大樹圓環藥局,(04)25122212,臺中市豐原區圓環東路６１７號１樓,120.7283,24.25084
5903010501,佑全豐原圓環東藥局,(04)25246069,臺中市豐原區圓環東路５４８、５５０、５５２、５５４號１樓,120.7275,24.24948
5903010510,安德豐原藥局,(04)25200733,臺中市豐原區中正路２９５號１樓,120.7159,24.25142
5903010547,佑全豐原中正藥局,(04)25152886,臺中市豐原區中正路２２３、２２５號１、２樓,120.7175,24.25179
5903010556,升禾和大藥局,(04)25293099,臺中市豐原區育英路２６號１樓,120.7163,24.24346
5903010583,林居藥局,(04)25159168,臺中市豐原區源豐路１１４號１樓,120.7173,24.25367
5903010609,隔壁藥局,(04)25231527,臺中市豐原區一心路２４０之２號１樓,120.7007,24.24613
5903020034,國良豐藥局,(04)25885778,臺中市東勢區豐勢路２１號１樓,120.8318,24.24779
5903020052,東勢福倫藥局,(04)25876118,臺中市東勢區豐勢路４３８號,120.829,24.25586
5903020089,新明通藥局,(04)25873969,臺中市東勢區豐勢路２３２號１樓,120.8302,24.25113
5903030012,康好藥局,(04)26802149,臺中市大甲區三民路１３２－２號,120.622,24.34851
5903030030,大甲健康藥局,(04)26805833,臺中市大甲區蔣公路２４２-１號１樓,120.6195,24.34722
5903030058,康達藥局,(04)26862001,臺中市大甲區蔣公路２６６號１樓,120.6189,24.34749
5903030067,甲尚藥局,(04)26760885,臺中市大甲區順天路１２９號１樓,120.622,24.3446
5903030076,百禾藥局,(04)26872538,臺中市大甲區仁愛街５８號,120.6187,24.34717
5903030085,廣元藥局,(04)26872843,臺中市大甲區順天路１４６號１樓,120.6224,24.34495
5903030110,大甲啄木鳥藥局,(04)26804502,臺中市大甲區中山路１段９０５號,120.6251,24.3431
5903030156,盈盈藥局,(04)26804212,臺中市大甲區文武路１８號,120.626,24.34582
5903030165,民和藥局,(04)26871212,臺中市大甲區德興路６８號,120.6233,24.35089
5903030183,志明藥局,(04)26876221,臺中市大甲區民生路２１號,120.6264,24.34676
5903030192,大甲合和藥局,(04)26802310,臺中市大甲區甲后路５段２６９號１樓,120.6338,24.34469
5903030209,世芳中西藥局,(04)26861906,臺中市大甲區光明路１２８之３號１樓,120.6224,24.34447
5903040036,得康藥局,(04)26260622,臺中市清水區高美路１１７號,120.5753,24.27879
5903040072,碧綠谷藥局,(04)26281151,臺中市清水區中華路５２５號,120.5718,24.27605
5903040090,清雲藥局,(04)26264893,臺中市清水區南社路３５５之１號１樓,120.5601,24.26694
5903040107,佑全清水中山三藥局,(04)26224469,臺中市清水區中山路２４、２６、２８號１樓,120.572,24.26043
5903040116,千順藥局,(04)26220580,臺中市清水區光復街１１０－２號１樓,120.5752,24.27125
5903050069,進騰藥局,(04)26314418,臺中市沙鹿區鎮南路２段２３４號,120.5689,24.22394
5903050087,仁暉健保處方藥局,(04)26365626,臺中市沙鹿區向上路７段１３０號,120.5643,24.20637
5903050103,北勢進騰藥局,(04)26330893,臺中市沙鹿區北勢東路５０９之７號１樓,120.576,24.22526
5903050149,立好藥局,(04)26522389,臺中市沙鹿區北勢東路６９３號１樓,120.5722,24.22957
5903050176,全國藥局,(04)26627097,臺中市沙鹿區臺灣大道７段９９２號,120.5622,24.24074
5903050194,樂齊藥局,(04)26338867,臺中市沙鹿區北中路８６－１、８６－２號,120.5692,24.22827
5903050210,富康沙鹿藥局,(04)26633399,臺中市沙鹿區沙田路１４２號１樓,120.5595,24.23613
5903050238,百岳大藥局,(04)26359825,臺中市沙鹿區鎮南路二段７７號１樓,120.5697,24.21895
5903050247,好利藥局,(04)26630087,臺中市沙鹿區中山路４８７－１號１樓,120.5619,24.2454
5903050256,大安心藥局,(04)26620082,臺中市沙鹿區星河路１２－１號１樓,120.5679,24.25208
5903050265,立全藥局,(04)26352689,臺中市沙鹿區自強路６９２號１樓,120.5614,24.20679
5903050274,鹿寮藥局,(04)26630677,臺中市沙鹿區中山路４６１、４６１－１號１、２樓,120.5615,24.24387
5903060010,大芳藥局,(04)26561755,臺中市梧棲區中央路１段９０７號,120.5381,24.24742
5903060038,梧棲玖裕藥局,(04)26583909,臺中市梧棲區中和街８５號,120.5316,24.25545
5903060092,佑全梧棲文化藥局,(04)26566433,臺中市梧棲區文化路二段１５０號１樓,120.531,24.25526
5903060127,沐光藥師連鎖藥局梧棲店,(04)26562262,臺中市梧棲區文昌路４４９號１樓,120.5386,24.24486
5903070016,泉興中西大藥局,(04)25583883,臺中市后里區甲后路一段５９８號,120.7171,24.30986
5903070025,得安藥局,(04)25585333,臺中市后里區四村路７８號,120.7129,24.30469
5903070052,后里宏安藥局,(04)25581036,臺中市后里區福音路２８號１樓,120.7134,24.30512
5903070061,豪銘藥局,(04)25562991,臺中市后里區公安路６８號,120.7113,24.30469
5903070089,后里瑞士藥師藥局,(04)25566999,臺中市后里區甲后路二段５７９號,120.7063,24.31155
5903070098,祐恩藥局,(04)25587518,臺中市后里區甲后路一段４７８號１樓,120.6819,24.3157
5903070105,后里藥局,(04)25590119,臺中市后里區文明路１３３號１樓,120.7164,24.30682
5903070132,內埔瑞士藥師藥局,(04)25566959,臺中市后里區中山路３７號１樓,120.7113,24.30446
5903070141,甲后藥局,(04)25585273,臺中市后里區甲后路一段２５３號１樓,120.727,24.30906
5903070169,佑全后里甲后藥局,(04)25583116,臺中市后里區甲后路一段７２８號１、２樓,120.7193,24.30951
5903080030,捷達藥局,(04)25225207,臺中市神岡區大漢街２５號,120.6974,24.25352
5903080094,灃洲大藥局,(04)25150169,臺中市神岡區豐洲路４６６－３號１樓,120.7045,24.26179
5903080138,佑全神岡中山藥局,(04)25634677,臺中市神岡區中山路５４９、５４９之１、５４９之２號１樓,120.6842,24.24638
5903090054,美日康藥局,(04)25382308,臺中市潭子區大新路５８號,120.7075,24.20236
5903090072,元康健保藥局,(04)25353893,臺中市潭子區圓通南路１９６號１樓,120.7043,24.20725
5903090116,上宇藥局,(04)25321258,臺中市潭子區中山路２段３８１號１樓,120.7051,24.21301
5903090125,愛生藥師藥局,(04)25321819,臺中市潭子區中山路２段４９１號,120.7051,24.21594
5903090143,佳福藥局,(04)25332982,臺中市潭子區中山路１段４３－１號,120.7023,24.19138
5903090189,名方藥局,(04)25341777,臺中市潭子區勝利路２８５號１樓,120.7004,24.21321
5903090223,均安藥局,(04)25310998,臺中市潭子區興華一路５０３號１樓,120.7014,24.21401
5903090330,潭子炘星藥局,(04)25320107,臺中市潭子區中山路一段９７號１樓,120.7023,24.19319
5903090367,成記藥局,(04)25358076,臺中市潭子區潭興路三段９３號１樓,120.7024,24.21151
5903090394,全球健康藥局,(04)25340212,臺中市潭子區南環路５號１樓,120.7045,24.21661
5903090429,佑全潭子中山藥局,(04)25356140,臺中市潭子區中山路一段９之１號,120.7023,24.18847
5903100037,大雅東亞藥師大藥局,(04)25605233,臺中市大雅區民生路１段２２、２２－１號,120.6543,24.22924
5903100046,躍獅佑仁藥局,(04)25608256,臺中市大雅區雅環路２段２８７號,120.6488,24.22919
5903100055,大詮藥師藥局,(04)25682767,臺中市大雅區民生路３段４３２號,120.6655,24.23441
5903100091,樂心藥局,(04)25682568,臺中市大雅區建興路１４３號,120.6659,24.21654
5903100117,妙昌藥局,(04)25664426,臺中市大雅區永和路１９４號,120.6472,24.22272
5903100135,大雅安德藥局,(04)25604133,臺中市大雅區中清東路２２９號１樓,120.6469,24.22459
5903100171,光田健保藥局,(04)25663077,臺中市大雅區永和路４８號１樓,120.6301,24.20971
5903100180,杏一大雅中清藥局,(04)25601791,臺中市大雅區中清路四段３１、３３、３５號１樓,120.6448,24.22615
5903100206,民生藥局,(04)25662229,臺中市大雅區民生路一段２２１號１樓,120.6512,24.22789
5903100215,佑全大雅雅環藥局,(04)25605942,臺中市大雅區雅環路二段８８號１樓,120.653,24.22634
5903110051,新社千百岳大藥局,(04)25821798,臺中市新社區興安路２４、２６號,120.8083,24.2412
5903130017,祐民健保藥局,(04)26836736,臺中市外埔區甲后路三段１０３０號１樓,120.6615,24.32387
5903130026,博翔欣大藥局,(04)26833312,臺中市外埔區重光路３３－１９號,120.6521,24.33128
5903130035,政修藥局,(04)26831881,臺中市外埔區中山路２９０號,120.6569,24.33043
5903140013,音聲藥局,(04)26715318,臺中市大安區中松路１８號１樓,120.5872,24.34664
5903150019,統元藥局,(04)23377588,臺中市烏日區中華路５８３號,120.6342,24.10755
5903150028,全成烏日藥局,(04)23352656,臺中市烏日區溪南路１段７７６號,120.6427,24.07423
5903150037,杏益藥局,(04)23364059,臺中市烏日區信義街１７２號,120.6393,24.10502
5903150091,學田藥局,(04)23382230,臺中市烏日區學田路便行巷１４號,120.6075,24.12086
5903150135,全品藥局,(04)23362690,臺中市烏日區公園路２４０之１號１樓,120.6254,24.10234
5903150144,佑全台中烏日藥局,(04)23367756,臺中市烏日區中山路一段３５４號１樓,120.6386,24.10816
5903150153,溪南藥局,(04)23353666,臺中市烏日區溪南路一段５６５號１樓,120.6431,24.07523
5903150171,上益藥局,(04)23360398,臺中市烏日區公園路３２０號１樓,120.6238,24.10287
5903150180,九德藥局,(04)23385456,臺中市烏日區中山路一段４３８、４４０號１樓,120.6365,24.10748
5903160042,大肚新庄藥局,(04)26912119,臺中市大肚區遊園路２段２２１－３號１樓,120.5808,24.17376
5903160051,祥安健保藥局,(04)26990580,臺中市大肚區育樂街１２－３號１樓,120.544,24.1532
5903160088,必安藥局,(04)26992116,臺中市大肚區沙田路二段６３４號,120.5455,24.15084
5903160097,安昌藥局,(04)26913890,臺中市大肚區遊園路二段１７６號１樓,120.5808,24.17289
5903170020,理想藥局,(04)26521597,臺中市龍井區國際街１２１號,120.5953,24.18672
5903170039,大佶安藥局龍井店,(04)26361410,臺中市龍井區沙田路６段１９７號１樓,120.5496,24.20907
5903170048,龍井新庄藥局,(04)26322169,臺中市龍井區遊園南路１７９號１樓,120.5843,24.18216
5903170119,開心果藥局,(04)26315252,臺中市龍井區新興路１１２號１樓,120.5835,24.18225
5903170146,向陽藥師連鎖藥局,(04)26390500,臺中市龍井區中央路三段３７號１樓,120.5248,24.21176
5903180053,皇昇藥局,(04)23397749,臺中市霧峰區四德路５５６號１樓,120.6648,24.06008
5903180062,霧峰安德藥局,(04)23300365,臺中市霧峰區中正路１１３５號１樓,120.6992,24.07002
5903180115,永合藥局,(04)23391910,臺中市霧峰區中正路９６５號,120.6989,24.06597
5903180133,正開心大藥局,(04)23396940,臺中市霧峰區中正路９５１號１樓,120.6987,24.06565
5903180142,峰正藥局,(04)23303353,臺中市霧峰區中正路８３０號１樓,120.6987,24.06244
5903190022,藥源藥局,(04)23955108,臺中市太平區中山路４段２２０號,120.7019,24.14817
5903190077,八醫健保藥局,(04)23935050,臺中市太平區中山路２段３５７號,120.7297,24.15021
5903190139,劍橋藥局,(04)22776619,臺中市太平區宜昌路５５２號１樓,120.7157,24.14758
5903190148,亞洲藥師連鎖大藥局,(04)23921681,臺中市太平區中山路２段４５８號,120.7253,24.14984
5903190157,春長藥局,(04)22799286,臺中市太平區太平路１４７號,120.7212,24.12003
5903190184,太平中大藥局,(04)22787846,臺中市太平區宜欣二路４４號１樓,120.7164,24.14525
5903190228,中山德侑藥局,(04)23920682,臺中市太平區中山路３段２之２號１樓,120.7222,24.14942
5903190273,太平小林健保藥局,(04)23954436,臺中市太平區育賢路５１８號,120.7133,24.15883
5903190282,雪仁藥局,(04)22755053,臺中市太平區太平路５０９號,120.7141,24.12497
5903190291,新平和藥局,(04)22771262,臺中市太平區光興路８２７號１樓,120.7307,24.11198
5903190335,育賢德侑藥局,(04)23920696,臺中市太平區育賢路１０７號、１０９號,120.7219,24.15768
5903190362,太平中山藥局,(04)23959200,臺中市太平區中山路４段１１號,120.7139,24.14931
5903190380,及宏藥局,(04)23919911,臺中市太平區樹孝路５０２號,120.7205,24.15806
5903190497,太平惠民藥師藥局,(04)22768799,臺中市太平區東平路３６８號１樓,120.7267,24.13433
5903190522,聖康佳禾藥局,(04)22772065,臺中市太平區光興路８３１號,120.7307,24.1121
5903190531,承泓藥局,(04)23935148,臺中市太平區育賢路３６３號１樓,120.7137,24.1591
5903190586,樹孝炘星藥局,(04)23929578,臺中市太平區樹孝路４７６號１樓,120.7203,24.15735
5903190595,布拉格藥局,(04)22786580,臺中市太平區東平路６１５號１樓,120.7164,24.13336
5903190666,川越藥局,(04)23935719,臺中市太平區新興二街１３６號１樓,120.7056,24.15992
5903190675,德芳太平藥局,(04)23511588,臺中市太平區中興路１３３巷１－１號１樓,120.7146,24.12617
5903190693,維肯藥局,(04)23512198,臺中市太平區中興路７８－１號１樓,120.7163,24.12783
5903190700,佑全太平藥局,(04)23910016,臺中市太平區樹德路１２１號１樓,120.712,24.15444
5903190719,勤益藥局,(04)23938969,臺中市太平區中山路一段３２１號１樓,120.7343,24.14496
5903190728,太平瑞昌藥局,(04)23956319,臺中市太平區新興路２８號１樓,120.7124,24.15916
5903190737,精武丁丁藥局,(04)23957235,臺中市太平區中山路四段１３２－１號,120.7044,24.14856
5903200096,仁化藥局,(04)24915902,臺中市大里區仁化路５４０號,120.7012,24.09623
5903200121,弘佑藥局,(04)24911234,臺中市大里區成功路５１５號１樓,120.7032,24.09071
5903200149,祥佑健保特約藥局,(04)24866398,臺中市大里區中興路２段４０６號,120.6901,24.10769
5903200176,聖康藥局,(04)22700625,臺中市大里區立仁路７９號１樓,120.7036,24.1078
5903200194,博德藥局,(04)24968642,臺中市大里區成功２路１０４號１樓,120.7,24.08539
5903200229,信元藥局,(04)24876051,臺中市大里區益民路２段３７２號１樓,120.684,24.11545
5903200318,廣信藥局,(04)24829981,臺中市大里區益民路１段１６４號１樓,120.6924,24.10673
5903200372,國光丁丁藥局,(04)24069711,臺中市大里區國光路２段５５１－１號１樓,120.6788,24.11241
5903200443,佳霖藥局,(04)24960895,臺中市大里區塗城路９６４號１樓,120.6933,24.09081
5903200514,大明永欣藥局,(04)24068864,臺中市大里區大明路５３９號１樓、５４１號１樓,120.6735,24.11478
5903200541,大里康媞藥局,(04)24966627,臺中市大里區塗城路４９４號,120.7024,24.08867
5903200569,和信健康藥局,(04)24833677,臺中市大里區德芳路一段５９號,120.6905,24.11342
5903200587,大里安德健保藥局,(04)24875607,臺中市大里區大明路１１７號,120.6861,24.11527
5903200596,大樹大里藥局,(04)24861133,臺中市大里區中興路二段１０１號,120.6885,24.10305
5903200621,德芳東榮藥局,(04)24863898,臺中市大里區東榮路８號,120.6893,24.1102
5903200649,躍獅日新藥局,(04)24822345,臺中市大里區日新路３４２號１樓,120.6925,24.11528
5903200658,德芳成功藥局,(04)24920298,臺中市大里區成功路５３５－３號１樓,120.7033,24.0913
5903200667,永欣東榮藥局,(04)24810599,臺中市大里區東榮路３７０號１樓,120.6836,24.11032
5903200676,立人藥局,(04)24831722,臺中市大里區益民路二段１９號１樓,120.6888,24.1063
5903200685,塗城藥局,(04)24967234,臺中市大里區中興路一段１８７、１８９、１９１號１樓,120.6933,24.09008
5903200694,大里福倫藥局,(04)24850218,臺中市大里區中興路二段１８３－２號１樓,120.6896,24.10679
5903200701,大益藥局,(04)24811551,臺中市大里區益民路二段３３５號１、２樓,120.6837,24.11311
5903200738,杏一大里國光藥局,(04)24071492,臺中市大里區國光路二段４１１號１樓,120.6796,24.10921
5903200756,佑全大里大明藥局,(04)24818633,臺中市大里區大明路３６０、３６２號,120.6787,24.11511
5903220061,宏信大藥局,(04)22222021,臺中市中區自由路２段４５號１樓,120.6815,24.13959
5903220114,鄧博士藥局,(04)22256851,臺中市中區中山路３２５號１樓,120.6756,24.14434
5903220141,雙十小林健保藥局,(04)22253662,臺中市中區雙十路一段３５號,120.6855,24.14172
5903220150,老順安大藥局,(04)22016306,臺中市中區中華路二段６３號、６５號１樓,120.6794,24.14801
5903220169,公園大藥局,(04)22062682,臺中市中區公園路９５號１樓,120.6796,24.1462
5903220178,佑全台中中華藥局,(04)22291556,臺中市中區中華路一段１６２號１樓,120.6779,24.14605
5903220196,日安藥局,(04)22234246,臺中市中區臺灣大道一段３３０號１樓,120.6801,24.1422
5903230085,翔新藥局,(04)22131269,臺中市東區東英１７街１６７－３號,120.7092,24.14785
5903230094,平祐健保藥局,(04)22113898,臺中市東區旱溪東路１段２９７號１樓,120.7009,24.13481
5903230156,樂業小林健保藥局,(04)22139123,臺中市東區樂業路４４３號１樓,120.7062,24.13693
5903230183,恒生藥局,(04)22135179,臺中市東區樂業路３９５號１樓,120.7051,24.138
5903230192,康是美藥局東英店,(04)22139034,臺中市東區十甲路４５０號１樓,120.7097,24.14406
5903230209,東京藥師藥局,(04)22132278,臺中市東區復興路五段１４９號１樓,120.6893,24.14543
5903230218,十甲東亞藥師大藥局,(04)22118879,臺中市東區十甲路４１０號１樓,120.7081,24.14425
5903230227,東區小林健保藥局,(04)22135148,臺中市東區十甲路４８５號１樓,120.7104,24.14464
5903230236,佳境藥局,(04)22211395,臺中市東區大智路１－１號１樓,120.6881,24.13635
5903240090,嶸曜藥局,(04)23782478,臺中市西區美村路１段５９２號,120.6615,24.13783
5903240143,利民藥局,(04)22292931,臺中市西區四維街２３號１樓,120.6758,24.13714
5903240152,陽光藥局,(04)23020711,臺中市西區中美街３０５號１樓,120.6601,24.14977
5903240170,美村全成藥局,(04)23014006,臺中市西區美村路１段２２２號１樓,120.6615,24.14875
5903240198,鑫祐藥局,(04)23027778,臺中市西區民權路３０２－５號,120.67,24.14767
5903240205,捷登藥局,(04)23191929,臺中市西區公益路１０６號,120.6613,24.15105
5903240278,美術藥局,(04)23725286,臺中市西區美村路一段５６７號,120.6618,24.14442
5903240367,宇祥藥局,(04)23728239,臺中市西區五權五街１１９號１樓,120.6601,24.13635
5903240376,台丞藥局,(04)22279666,臺中市西區三民路一段１６６－５號,120.6746,24.13743
5903240385,喆星藥局,(04)24715301,臺中市西區精誠路４２２號,120.655,24.14522
5903240410,德芳美村藥局,(04)23782848,臺中市西區美村路一段６８１、６８３號１樓,120.6618,24.13545
5903240429,神農藥局,(04)23103335,臺中市西區公益路１９０之１號１樓,120.6567,24.15103
5903240438,真誠藥局,(04)23015750,臺中市西區美村路一段３７８號１樓,120.6615,24.14458
5903240447,大樹五權藥局,(04)22022910,臺中市西區五權路９７－１號１樓,120.6717,24.14626
5903240456,杏一台中美村藥局,(04)23013310,臺中市西區美村路一段２４２、２４６號１樓,120.6615,24.14825
5903240465,德恩藥師藥局,(04)23102358,臺中市西區精誠路２５２號１樓,120.6549,24.14949
5903240474,佑全台中向上藥局,(04)23204732,臺中市西區向上路一段３８６、３８８號１樓,120.6559,24.14688
5903240483,名華藥局,(04)22231187,臺中市西區中華路一段７號１樓,120.6732,24.14209
5903240492,好好誠美藥局,(04)23022838,臺中市西區向上北路１８６號１樓,120.6611,24.14797
5903250041,小林健保藥局,(04)22622099,臺中市南區美村路２段１８２號,120.6631,24.12549
5903250103,忠孝德侑健保藥局,(04)22851400,臺中市南區正義街１５９號,120.6806,24.12919
5903250112,立成藥局,(04)22205915,臺中市南區學府路１４３號,120.6739,24.1289
5903250176,弘大美妝藥局,(04)22859180,臺中市南區南門路１１５號１樓,120.6798,24.12222
5903250194,元氣家藥局,(04)22631660,臺中市南區文心南路８８８－３號１樓,120.6594,24.11167
5903250210,好好藥局,(04)22612961,臺中市南區忠明南路７８６號,120.6605,24.12233
5903250309,台杏藥局,(04)22218087,臺中市南區復興路三段３３７號,120.678,24.13261
5903250318,全太藥局,(04)22600068,臺中市南區復興路一段４４７號,120.6572,24.11699
5903250381,大樹美村藥局,(04)22621113,臺中市南區美村南路１２４號,120.667,24.11499
5903250443,千美台安藥局,(04)22602101,臺中市南區美村南路２６３號,120.6666,24.11426
5903250505,心安藥局,(04)22858773,臺中市南區國光路２４１號１樓,120.6794,24.12676
5903250514,泰友藥局,(04)22615701,臺中市南區復興路二段９９巷１３號１樓,120.6626,24.12399
5903250550,旭康藥局,(04)22857372,臺中市南區台中路３８０號１樓,120.6841,24.12652
5903250578,樂碩藥局,(04)22601288,臺中市南區建國南路一段２５９號１樓,120.6583,24.12491
5903250587,俊達藥師藥局,(04)22650023,臺中市南區五權南路５２９號１樓,120.6698,24.11692
5903250596,白金藥局,(04)22609879,臺中市南區復興路一段３８０號４樓,120.6564,24.11572
5903250603,尚尚藥局,(04)22606831,臺中市南區美村南路１９７號１樓,120.6666,24.11516
5903250612,杏一南區台中藥局,(04)22220652,臺中市南區台中路６６、６８號１樓,120.683,24.1339
5903250630,澄光工學藥局,(04)22620606,臺中市南區工學路１５９號１樓,120.6592,24.11688
5903250658,田園藥局,(04)22220605,臺中市南區學府路１６０號１樓,120.6742,24.12909
5903260163,康甫藥師藥局,(04)22366682,臺中市北區進化北路３６６號１樓,120.6806,24.16333
5903260270,冠安藥局,(04)22335770,臺中市北區進化路５１０、５１２號,120.6946,24.16047
5903260314,喜悅健保藥局,(04)22333988,臺中市北區健行路４１４號１樓,120.6818,24.15927
5903260341,台中漢口藥局,(04)22936166,臺中市北區漢口路３段１８３號,120.6711,24.16703
5903260421,忠明小林健保藥局,(04)22013666,臺中市北區忠明路１６１號,120.6642,24.16235
5903260449,喜樂藥局,(04)22060423,臺中市北區中清路１段３１號,120.677,24.1529
5903260476,康媞藥局,(04)22925388,臺中市北區北平路二段１２８號１樓,120.6774,24.17124
5903260501,瑞鋒藥師藥局,(04)22020786,臺中市北區育德路１６號,120.6795,24.15763
5903260547,源順大藥局,(04)22072651,臺中市北區健行路４８４號,120.6797,24.15931
5903260592,台中丁丁藥局,(04)22374596,臺中市北區漢口路４段２５５號,120.6794,24.16728
5903260618,中清小林健保藥局,(04)22034197,臺中市北區中清路一段８６、８８號１樓,120.6767,24.15622
5903260627,明曜藥局,(04)22916775,臺中市北區北平路二段１９０號１樓,120.6784,24.17117
5903260654,康新藥局,(04)22020008,臺中市北區五權路２３２號,120.677,24.15078
5903260663,佑全台中五權藥局,(04)22080702,臺中市北區五權路４９６號,120.6833,24.15329
5903260681,昭德藥師藥局,(04)23235655,臺中市北區西屯路一段３４５號,120.6654,24.16007
5903260707,新藥林藥局,(04)22053458,臺中市北區健行路４４５－５號１樓,120.6803,24.15896
5903260734,立得藥局,(04)22080013,臺中市北區忠太西路１１號１樓,120.6678,24.15997
5903260743,黎明安德藥局,(04)22956098,臺中市北區中清路１段８５２號１樓,120.6718,24.17295
5903260761,杏一北區忠明藥局,(04)22081273,臺中市北區忠明路４４２號１樓,120.67,24.16267
5903260789,瑞昌藥局,(04)22056819,臺中市北區學士路１５５號１樓,120.6807,24.15841
5903260798,光恒藥局,(04)22068638,臺中市北區五權路２６１號１樓,120.6767,24.15097
5903260814,杏一北區文心藥局,(04)22993847,臺中市北區文心路４段２１０－８號１、２樓,120.678,24.1729
5903260832,維康學士藥局,(04)22080545,臺中市北區學士路１９號１樓,120.6822,24.15384
5903260878,927達霖藥師藥局,(04)22060030,臺中市北區中華路二段２０１號１樓,120.6822,24.15278
5903260896,中清丁丁藥局,(04)22919866,臺中市北區中清路一段５３１號１樓,120.6728,24.1678
5903260912,莒光藥局,(04)22336663,臺中市北區錦南街１２號１樓,120.6886,24.15399
5903260930,大西洋藥局,(04)22932469,臺中市北區北平路２段２８號１樓,120.6726,24.17165
5903260949,進化瑞昌藥局,(04)23608199,臺中市北區進化路３３２號１樓,120.6946,24.15378
5903260958,健康達人藥局,(04)22994866,臺中市北區北平路２段５６號１樓,120.6735,24.17153
5903260967,正尚藥局,(04)22350347,臺中市北區榮華街１６６號１樓,120.6868,24.16444
5903260976,躍獅達心藥局,(04)22344548,臺中市北區雙十路二段１８７號１樓,120.6906,24.15779
5903260985,森川健保藥局,(09)78157008,臺中市北區五權路２５１號１樓,120.6764,24.15074
5903261008,台中大樹藥局,(04)22981113,臺中市北區漢口路三段２６１號,120.6726,24.16703
5903261017,多倫多藥局,(04)22980210,臺中市北區太原路二段１１號１樓,120.6753,24.16558
5903270061,青育藥師藥局,(04)27068798,臺中市西屯區河南路２段３６２號１樓,120.6469,24.17368
5903270089,信心藥局,(04)23163430,臺中市西屯區四川路１９０號,120.6559,24.16046
5903270105,樂得好大藥局,(04)24521173,臺中市西屯區上石路２號１樓,120.644,24.16669
5903270230,大心藥局,(04)24528355,臺中市西屯區西屯路２段２９５－１９號,120.6418,24.17795
5903270301,宥承藥局,(04)24626559,臺中市西屯區西屯路３段１４８－１６號,120.6242,24.18563
5903270310,弘福藥師藥局,(04)24611916,臺中市西屯區西屯路３段１６６－２１號１樓,120.6159,24.18918
5903270347,甘肅安德藥局,(04)23165935,臺中市西屯區甘肅路２０２－３號,120.6573,24.16838
5903270365,麒霖藥局,(04)24638978,臺中市西屯區福順路３０７號１樓,120.6185,24.1832
5903270392,瑞德大藥局,(04)22939820,臺中市西屯區中清西二街８４號,120.6671,24.17511
5903270409,維恩藥局,(04)23174277,臺中市西屯區甘肅路一段１９５號,120.6568,24.16846
5903270516,中科何藥局,(04)24612570,臺中市西屯區福康路４０號,120.6173,24.18421
5903270570,百富藥局,(04)22970708,臺中市西屯區福上巷１６號,120.6425,24.17577
5903270614,至善德侑藥局,(04)24518729,臺中市西屯區至善路６０號,120.6395,24.17141
5903270721,舒健藥局,(04)27077858,臺中市西屯區西屯路二段２５５號２樓,120.6459,24.17179
5903270749,大墩藥局,(04)23209602,臺中市西屯區大墩１９街６８號１樓,120.6518,24.15734
5903270776,河南丁丁藥局,(04)22511658,臺中市西屯區河南路４段１９１號,120.6367,24.15565
5903270801,榮友藥局,(04)23508392,臺中市西屯區臺灣大道四段１７４２號,120.6024,24.18286
5903270810,佑全福星藥局,(04)24527465,臺中市西屯區黎明路三段３９５、３９７號,120.639,24.18251
5903270847,分子藥局,(04)22513080,臺中市西屯區惠來路二段２３６－１號,120.6421,24.16318
5903270865,尚禾藥局,(04)23147688,臺中市西屯區青海路一段６５號,120.6548,24.16438
5903270874,熊健康藥局,(04)23163505,臺中市西屯區太原路一段２３２號,120.6632,24.16394
5903270883,祥和大藥局,(04)27000122,臺中市西屯區青海路二段２４０－９號,120.6418,24.17323
5903270892,杏林堂藥局,(04)24528967,臺中市西屯區黎明路三段１４８號１樓,120.6376,24.17729
5903270909,元生藥局,(04)23274539,臺中市西屯區大墩路９６０號,120.6516,24.15817
5903270918,全成西屯藥局,(04)24512290,臺中市西屯區黎明路三段２２１、２２３號1樓,120.6373,24.17723
5903270927,河南小林健保藥局,(04)24512830,臺中市西屯區河南路二段２９８號１樓,120.6485,24.17477
5903270936,新元藥局,(04)23121383,臺中市西屯區文心路三段５３２號１樓,120.6659,24.17267
5903270963,源興大藥局,(04)23143045,臺中市西屯區西屯路二段１２號,120.6622,24.16387
5903271004,西屯青育藥師藥局,(04)27077898,臺中市西屯區西屯路二段２９５－３號１樓,120.6425,24.17735
5903271022,西屯藥局,(04)24621822,臺中市西屯區西屯路三段１５０－４５號１樓,120.621,24.18716
5903271031,美十樂中科藥局,(04)24610219,臺中市西屯區西屯路三段１６６－６５號１樓,120.6129,24.19035
5903271059,安德藥局,(04)24638302,臺中市西屯區福康路１７號１樓,120.6165,24.1833
5903271068,西墩藥局,(04)24510770,臺中市西屯區黎明路三段２７５、２７７號１樓,120.6373,24.17812
5903271086,常春藤藥局,(04)24619296,臺中市西屯區福康路８０號１樓,120.618,24.18603
5903271102,杏東美藥局,(04)24523798,臺中市西屯區智惠街１５６號１樓,120.6438,24.17032
5903271139,百吉藥局,(04)23135698,臺中市西屯區青海路一段７１號１樓,120.6547,24.1644
5903271148,重慶美得康藥局,(04)23111789,臺中市西屯區重慶路１３９號１樓,120.6563,24.16628
5903271157,富康家健保藥局,(04)23174741,臺中市西屯區漢成四街８號１樓,120.6652,24.17026
5903271175,維康中榮藥局,(04)23593195,臺中市西屯區東大路一段１３號１樓,120.6022,24.18315
5903271193,何安藥局,(04)23161110,臺中市西屯區西屯路二段１０１號Ｂ棟１樓,120.6531,24.16616
5903271200,甘肅台安藥局,(04)23160761,臺中市西屯區甘肅路一段１號１樓,120.6602,24.16453
5903271246,柏醫藥局,(04)24526391,臺中市西屯區上安路５６號１樓,120.6412,24.17052
5903271264,櫻嘉藥局,(04)23150255,臺中市西屯區櫻花路１０７號１樓,120.651,24.17065
5903271282,禾安藥局,(04)23176162,臺中市西屯區西屯路二段１２６之８號,120.6518,24.16682
5903271291,西屯長安藥局,(04)22981221,臺中市西屯區成都路３６８號１樓,120.6641,24.17322
5903271308,祐生藥局,(04)24517169,臺中市西屯區文華路３之１號１樓,120.6447,24.17535
5903280067,博川健保藥局,(04)24732995,臺中市南屯區大墩５街２９８號１樓,120.6486,24.14257
5903280101,成記大藥局,(04)23288877,臺中市南屯區大墩１７街１２３號１樓,120.648,24.15557
5903280165,南屯福倫藥局,(04)24758018,臺中市南屯區南屯路２段３１７號,120.6456,24.13754
5903280245,大墩何藥局,(04)24710655,臺中市南屯區大敦南路４３１號１．２樓,120.6476,24.13497
5903280325,亞洲連鎖大藥局,(04)23812886,臺中市南屯區黎明路２段１３３、１３５號,120.6336,24.15977
5903280334,長益藥局,(04)23899383,臺中市南屯區忠勇路９９號,120.6155,24.14971
5903280361,誠美健保藥局,(04)24752000,臺中市南屯區南屯路２段１６９號１樓,120.6509,24.1361
5903280398,元生連鎖保健藥局,(04)23273267,臺中市南屯區大墩路９２２號１樓,120.651,24.15713
5903280450,瑞安藥局,(04)24750818,臺中市南屯區大墩路２６１號,120.6497,24.14302
5903280521,百康健保藥局,(04)22547776,臺中市南屯區黎明路二段３６３號,120.6353,24.15033
5903280549,仁幼藥局,(04)23809162,臺中市南屯區黎明東街２２９號１樓,120.6367,24.1482
5903280567,康總藥局,(04)24735285,臺中市南屯區南屯路二段１０１號１樓,120.6524,24.13579
5903280576,佑全黎明藥局,(04)23805560,臺中市南屯區黎明路２段２６６號,120.6359,24.14816
5903280585,康得藥局,(04)23820981,臺中市南屯區向上路三段４５號,120.6354,24.14623
5903280601,方昇藥局,(04)23288818,臺中市南屯區大墩路８１３號１樓,120.6495,24.15515
5903280647,澄光人文藥局,(04)22530303,臺中市南屯區干城街３０５號,120.6345,24.1526
5903280656,熊大心藥局,(04)22516252,臺中市南屯區河南路四段３７６號,120.6369,24.15208
5903280683,詠悅藥局,(04)22515012,臺中市南屯區大墩十二街６３７號,120.6369,24.15009
5903280718,樂活藥局,(04)23106301,臺中市南屯區大聖街３３２號１樓,120.6508,24.15401
5903280745,亨宇藥局,(04)24711206,臺中市南屯區東興路二段２９－２號１樓,120.6529,24.13688
5903280763,全順藥局,(04)24730983,臺中市南屯區永春東路３３９號１樓,120.6477,24.13447
5903280781,美十樂藥局,(04)24710219,臺中市南屯區東興路二段２７９號１樓,120.6528,24.1437
5903280790,統一藥局,(04)24701996,臺中市南屯區黎明路一段１１９號１樓,120.6261,24.11478
5903280807,大樹南屯藥局,(04)24758887,臺中市南屯區向上路一段６４３號１樓,120.6486,24.14659
5903280816,大育藥局,(04)24755656,臺中市南屯區東興路二段７１號１樓,120.6528,24.13835
5903280889,精科藥局,(04)23806288,臺中市南屯區嶺東路３２１號１樓,120.6106,24.14513
5903280898,佑全台中忠勇藥局,(04)23803282,臺中市南屯區忠勇路５１－８號１樓,120.614,24.14376
5903280914,豐樹藥局,(04)24792098,臺中市南屯區黎明路一段６３號１樓,120.6258,24.11362
5903280923,南屯丁丁藥局,(04)36015077,臺中市南屯區五權西路二段２１８號１樓,120.6503,24.14035
5903290045,康美得藥局,(04)22467128,臺中市北屯區昌平路１段１０５－８號,120.6903,24.17373
5903290063,承恩藥局,(04)22467857,臺中市北屯區北屯路４４１－１號１樓,120.7008,24.17977
5903290232,弘映藥局,(04)22464485,臺中市北屯區崇德路２段４６７號,120.6859,24.18133
5903290312,大連大愛藥局,(04)22428899,臺中市北屯區大連路２段２２１號,120.6883,24.17579
5903290385,元復藥局,(04)24362075,臺中市北屯區東山路１段２２５－７號,120.7155,24.17475
5903290394,億銓藥局,(04)22313670,臺中市北屯區北屯路２１０－１號,120.6961,24.16756
5903290518,佳美藥局,(04)24363658,臺中市北屯區東山路１段２６５號１樓,120.7184,24.17583
5903290572,合健藥局,(04)22951833,臺中市北屯區大連路一段５４－１號,120.6726,24.17565
5903290607,敦化小林健保藥局,(04)24261881,臺中市北屯區敦化路１段６６８號,120.6643,24.18593
5903290625,又昌中西健保藥局,(04)24375716,臺中市北屯區東山路１段２２３號,120.7152,24.17452
5903290661,康博中西健保藥局,(04)24252468,臺中市北屯區后庄一街７號１樓,120.6644,24.1865
5903290689,大德安藥局,(04)24378351,臺中市北屯區景賢路２３６號,120.7241,24.16701
5903290750,長幼藥局,(04)22426767,臺中市北屯區崇德路二路二段１５７號１樓,120.6853,24.17329
5903290778,博宇藥局,(04)22341479,臺中市北屯區北屯路３８５之１號,120.6979,24.17193
5903290803,英全藥局,(04)22345179,臺中市北屯區北平路三段３４號,120.6803,24.17105
5903290821,昌平炘星藥局,(04)22417616,臺中市北屯區昌平路二段１１－３６號,120.6886,24.18159
5903290830,齊方藥局,(04)22912192,臺中市北屯區四平路３９號,120.6708,24.17885
5903290849,新盛藥局,(04)22467779,臺中市北屯區松竹路二段１５７號１樓,120.6959,24.18312
5903290867,軍功啄木鳥藥局,(04)22390160,臺中市北屯區軍功路二段１７５號,120.7195,24.17982
5903290876,北屯軍功藥局,(04)24375111,臺中市北屯區軍功路一段７５２號,120.7193,24.17513
5903290894,豐禾藥局,(04)24260588,臺中市北屯區同榮路１６３號,120.6618,24.19589
5903290901,帥帥藥局,(04)24378188,臺中市北屯區東山路一段３００－２號,120.7204,24.1759
5903290929,微笑藥局,(04)22432699,臺中市北屯區昌平路一段３１８號１樓,120.6907,24.17344
5903290947,德寶健保藥局,(04)22325511,臺中市北屯區熱河路一段７０號１樓,120.687,24.1674
5903290965,崇德藥局,(04)22361331,臺中市北屯區崇德路二段３１號,120.685,24.16962
5903290974,興安永佳藥局,(04)22437876,臺中市北屯區興安路一段３３３號１樓,120.6944,24.17431
5903290983,祥和藥局,(04)22369603,臺中市北屯區太原路三段１４７號１樓,120.6901,24.16507
5903290992,益川健保藥局,(04)24213696,臺中市北屯區昌平路二段４７－１號１樓,120.6829,24.1917
5903291006,五和健保藥局,(04)22415533,臺中市北屯區崇德路二段４６０號１樓,120.6863,24.18001
5903291042,全成北屯藥局,(04)22463518,臺中市北屯區北屯路４３９－１１號１樓,120.7004,24.17913
5903291060,大樹北屯藥局,(04)22422262,臺中市北屯區松竹路二段４１１號１樓,120.6895,24.18192
5903291079,富丘藥局,(04)22477301,臺中市北屯區興安路二段７７號１樓,120.6947,24.17686
5903291104,惠登藥局,(04)24225682,臺中市北屯區豐樂路３２之９號１樓,120.6897,24.19282
5903291131,兩隻老虎藥局,(04)22364635,臺中市北屯區崇德路２段１２號１樓,120.6855,24.16869
5903291140,興安藥局,(04)22460369,臺中市北屯區興安路二段５２號１、２樓,120.6949,24.1762
5903291159,均福藥局,(04)24391169,臺中市北屯區軍福十三路１００號１樓,120.7308,24.17096
5903291168,日初藥局,(04)24363150,臺中市北屯區軍功路一段４８２－３號１樓,120.7188,24.17102
5903291177,大連何藥局,(04)22930895,臺中市北屯區山西路二段２７４號１樓,120.677,24.177
5903291195,匯百鴻藥局,(04)24222288,臺中市北屯區昌平東二路１５６號１樓,120.6877,24.18922
5903291202,好心情藥局,(04)22335663,臺中市北屯區昌平路一段１７之３號,120.6941,24.16607
5903291211,愛樂芬兒童藥局,(04)24363660,臺中市北屯區松竹路一段９２９號１樓,120.7131,24.18216
5903291220,佑全台中四平藥局,(04)24212792,臺中市北屯區四平路３６０號１樓,120.682,24.19324
5903291248,潔西卡大藥局,(04)22416879,臺中市北屯區崇德路二段３１４號１樓,120.686,24.1765
5903291257,新一代何藥局,(04)24364366,臺中市北屯區環中東路二段２６６、２６８號１樓,120.7207,24.17576
5903291266,佑全台中興安藥局,(04)22490355,臺中市北屯區興安路一段２５３號,120.6941,24.17221
5903291275,康是美藥局東山店,(04)24634571,臺中市北屯區東山路一段３２０號１樓、和福路２５８號１樓,120.7229,24.17591
5905010036,橘子藥局,(06)6351881,臺南市新營區民權路１１８之２號,120.312,23.30989
5905010063,松柏藥局,(06)6590063,臺南市新營區新南里新北街１號,120.3048,23.30861
5905010072,長壽藥局,(06)6324001,臺南市新營區中山路２１９號,120.3146,23.30286
5905010125,宏泰大藥局,(06)6327801,臺南市新營區新東里東興８街２７號,120.3273,23.3189
5905010143,啄木鳥藥師藥局,(06)6590248,臺南市新營區新南里民治路２４２號,120.3041,23.30767
5905010152,謙和藥師藥局,(06)6322957,臺南市新營區延平路１０１之２號,120.3135,23.29982
5905010250,大樹新營藥局,(06)6328300,臺南市新營區民權路７４、７６、７８號１樓,120.3127,23.30615
5905010296,躍獅新營藥局,(06)6564325,臺南市新營區民生路１６８號１樓,120.3073,23.31112
5905010330,新進啄木鳥藥局,(06)6565303,臺南市新營區新進路２段２５４號１樓,120.3056,23.30074
5905020023,大樹鹽水藥局,(06)6520432,臺南市鹽水區朝琴路１２６－３號１樓,120.271,23.32228
5905030010,美恩健保藥局,(06)6858865,臺南市白河區永安里中山路８１號１樓,120.4153,23.35018
5905030038,美尚藥局,(06)6853538,臺南市白河區白河里康樂路４３號,120.4148,23.34833
5905030047,大源醫藥局,(06)6852306,臺南市白河區中山路１７２之２號,120.4177,23.35257
5905030092,大樹白河藥局,(06)6830006,臺南市白河區中山路１５３號１樓,120.417,23.35255
5905040105,幸福藥局,(06)5720977,臺南市麻豆區光復路１２７號１樓,120.245,23.18435
5905040123,麻豆啄木鳥藥局,(06)5714786,臺南市麻豆區興國路５６－２２號１樓,120.2471,23.17712
5905040141,大樹麻豆藥局,(06)5716556,臺南市麻豆區中山路４８、５０號１樓,120.2469,23.18382
5905050058,佳里啄木鳥藥局,(06)7236396,臺南市佳里區延平路７６號１樓,120.1795,23.15507
5905050094,建昌藥局佳里店,(06)7221369,臺南市佳里區光復路３７１號,120.1747,23.16452
5905050165,德昌藥局佳里店,(06)7232388,臺南市佳里區光復路２３３號,120.1746,23.16095
5905050192,復佑藥局,(06)7222771,臺南市佳里區光復路３１５號１樓,120.1746,23.16289
5905050209,大樹佳里藥局,(06)7231323,臺南市佳里區延平路２３７號１樓,120.1783,23.1599
5905060054,全家康藥師藥局,(06)5980866,臺南市新化區北勢里中正路１２０７號,120.2968,23.05935
5905060081,新化景惠藥局,(06)5909659,臺南市新化區護國里中山路１８５號,120.3103,23.03705
5905060125,美麗安藥局,(06)5909509,臺南市新化區護國里中山路１５０－１號１樓,120.3102,23.03714
5905060161,和德藥局新化店,(06)5802518,臺南市新化區清水里中山路４２０號１樓,120.3047,23.0359
5905060198,大樹新化藥局,(06)5901331,臺南市新化區中正路５３１號１樓,120.3072,23.03764
5905070050,晶德昌藥局,(06)5856141,臺南市善化區文光里中山路８５號,120.3034,23.13298
5905070112,健登藥局,(06)5831133,臺南市善化區大成路２１２號１樓,120.3004,23.13021
5905070121,大樹善化藥局,(06)5830550,臺南市善化區民權路５４、５６、５８號１樓,120.3034,23.1322
5905070158,南科健登藥局,(06)5836266,臺南市善化區龍目井路４１３號１樓,120.3058,23.10922
5905070185,宇康藥局,(06)5830963,臺南市善化區蓮潭里蓮潭南街１５０號１樓,120.3077,23.11199
5905070201,善化啄木鳥藥局,(06)5853585,臺南市善化區中山路１８１號１、２樓,120.3006,23.13256
5905080056,大樹學甲藥局,(06)7820001,臺南市學甲區中正路１３５號１樓,120.1793,23.23029
5905080065,生祥大藥局學甲店,(06)7838462,臺南市學甲區仁得里華宗路３６９號１樓,120.1821,23.23223
5905090025,中山藥局,(06)6221696,臺南市柳營區中山西路二段１４５號１樓,120.3137,23.27664
5905090061,安安藥局柳營店,(06)6220585,臺南市柳營區福安一街５０號１樓,120.3126,23.27711
5905090070,維康藥局柳營店,(06)6226228,臺南市柳營區太康里２０１－１０號１樓,120.3253,23.28793
5905100035,華恩藥局,(06)6623491,臺南市後壁區菁寮里５１號１樓,120.3356,23.37883
5905100062,美尚藥局後壁店,(06)6871138,臺南市後壁區後壁里１６８－８號,120.364,23.36509
5905130024,人大藥局,(06)6988802,臺南市六甲區中山路７號,120.3513,23.23059
5905130042,人大聯合藥局,(06)6987822,臺南市六甲區中山路８號１樓,120.3513,23.23087
5905130051,唯安健保藥局,(06)6980550,臺南市六甲區中正路４７７號１樓,120.3511,23.22957
5905140011,振安藥局,(06)5791810,臺南市官田區隆田里中山路一段６０號,120.3178,23.1929
5905140039,安安藥局隆田店,(06)5795705,臺南市官田區中山路一段１５號１樓,120.3186,23.1927
5905160013,長榮藥局,(06)7952617,臺南市西港區新興街１２巷１４號１樓,120.2019,23.12005
5905170019,博士藥師專業藥局,(06)7874226,臺南市七股區大埕里３５７號１樓,120.1416,23.14288
5905170037,建昌藥局,(06)7873777,臺南市七股區大寮里１之１１號,120.1493,23.1482
5905180042,建昌藥局漚汪店,(06)7941889,臺南市將軍區忠興里１－６號１樓,120.1605,23.2013
5905180051,晉昇藥師藥局,(06)7943667,臺南市將軍區西甲里４鄰西華６７之２１號１樓,120.1563,23.19908
5905200030,新和德健保藥局,(06)5997603,臺南市新市區中正路３１９－１號,120.2939,23.07958
5905200058,欣和德藥局,(06)5895658,臺南市新市區中正路２００號,120.2916,23.07516
5905200085,大樹新市藥局,(06)5892552,臺南市新市區中正路４９、５１號１樓,120.2916,23.07223
5905200094,大華藥局,(06)5997119,臺南市新市區大社里大社７０８號１樓,120.3176,23.08945
5905210027,愛心藥師藥局,(06)5935104,臺南市安定區港南里港口１４７號,120.233,23.09041
5905210036,一翔藥局,(06)5935208,臺南市安定區港南里港口１９６號１樓,120.2323,23.09044
5905270041,仁德市安藥師藥局,(06)2661933,臺南市仁德區中正西路２５號,120.2244,22.91814
5905270112,昱欣藥局,(06)2798970,臺南市仁德區中正路２段１１８１號１樓,120.252,22.96969
5905270121,安麗兒藥局仁德店,(06)2498619,臺南市仁德區新田里中正路二段４４５號,120.2523,22.95461
5905270158,佳德藥局,(06)2796767,臺南市仁德區德糖路４７０號１樓,120.2522,22.95128
5905270176,大樹仁德藥局,(06)2797466,臺南市仁德區中正路二段１１５２號１樓,120.2519,22.97062
5905270194,成吉藥局仁義店,(06)2497307,臺南市仁德區仁義路４２－１號１樓,120.2539,22.96808
5905280047,獅甲藥局,(06)3388387,臺南市歸仁區六甲里六甲路２０３號,120.2788,22.95239
5905280092,元康保健藥局,(06)2309055,臺南市歸仁區中山路二段２２９號,120.2888,22.96721
5905280109,大樹青青藥局,(06)2300301,臺南市歸仁區中山路三段１２號,120.2875,22.96765
5905280118,和雅藥局,(06)2307757,臺南市歸仁區民權三街９６號１樓,120.2902,22.96936
5905280136,悅橙歸仁藥局,(06)2396660,臺南市歸仁區大通路４３號１樓,120.296,22.9676
5905280154,喜樂藥局,(06)2305101,臺南市歸仁區辜厝里中正南路一段１１４號１樓,120.293,22.96419
5905280163,歸仁丁丁藥局,(06)2300767,臺南市歸仁區中山路三段７３號１樓,120.2861,22.96753
5905290034,大樹關廟藥局,(06)5965889,臺南市關廟區中央路２６３號１樓,120.3272,22.96109
5905310157,信仁藥局,(06)2337755,臺南市永康區中華西街１４９號,120.2257,23.01581
5905310184,鹽行健保藥局,(06)2435112,臺南市永康區中正南路８６１號,120.2369,23.04132
5905310237,睿禾藥局,(06)3023868,臺南市永康區東橋一路１３號,120.2356,23.01609
5905310264,仁安藥師藥局,(06)2056055,臺南市永康區崑山里大仁街６１號,120.2566,23.00183
5905310273,誠康藥局,(06)3022005,臺南市永康區中山東路１１３號１樓,120.2367,23.01266
5905310291,俐欣藥局,(06)2050777,臺南市永康區大仁街２０６號１樓,120.2582,23.00553
5905310326,美德生醫藥局,(06)2030463,臺南市永康區復國一路４９６號１樓,120.245,23.01514
5905310344,昱賢藥師藥局中正店,(06)2021535,臺南市永康區中正路１４１、１４３號１樓,120.2375,23.04097
5905310353,家嘉藥局,(06)3121328,臺南市永康區復國一路２０６號,120.2462,23.00644
5905310531,晉大藥局復國店,(06)2025309,臺南市永康區復國一路５８２－１號,120.2438,23.01671
5905310540,裕安藥局,(06)3133251,臺南市永康區中華二路３８５號,120.2315,23.0083
5905310568,宜芯健康藥局,(06)2722622,臺南市永康區大灣路７３６號１樓,120.2611,23.00076
5905310657,昂德藥局,(06)3121220,臺南市永康區復華里復國一路１５２號１樓,120.2467,23.01241
5905310755,德昌藥局永康店,(06)3020628,臺南市永康區中華路４６２號,120.2327,23.01082
5905310817,永大啄木鳥藥局,(06)2071575,臺南市永康區永大路二段３９７號１樓,120.2632,23.01227
5905310871,晶辰藥局,(06)2733368,臺南市永康區大灣里民族路３９６巷１號、３號１樓、３９８號１樓,120.2661,23.00825
5905310880,永東藥局,(06)2318700,臺南市永康區中山路５５號１樓,120.2562,23.02921
5905310933,樂馨藥局,(06)2038100,臺南市永康區中山路８５號１樓,120.2561,23.02984
5905310979,復華藥師藥局,(06)3123597,臺南市永康區復興里復華一街１３１號１樓,120.2422,23.00531
5905310988,小東藥局,(06)3127169,臺南市永康區小東路５７３號１樓,120.2369,22.99867
5905311001,和德藥局復國店,(06)2038728,臺南市永康區復國里復國一路３３９之７號１樓,120.2464,23.01155
5905311010,樂丞藥局,(06)2433319,臺南市永康區中正北路６０號１樓,120.2406,23.04138
5905311038,莉志藥局,(06)3123090,臺南市永康區建國里復國路８７巷３號１樓,120.2459,23.00103
5905311074,中華長億藥局,(06)3022322,臺南市永康區中華路７３４、７３６號１樓,120.2288,23.0167
5905311083,心康藥局,(06)2055075,臺南市永康區永大路二段１７９號１樓,120.2616,23.00665
5905311092,永大丁丁藥局,(06)2013690,臺南市永康區永大路二段１５１６號１樓,120.2611,23.02493
5905311127,台南永康藥局,(06)2020201,臺南市永康區中山南路８１６、８１６─１、２、３號１樓,120.2471,23.02099
5905311145,慈惠中西藥局,(06)2050956,臺南市永康區北興里北興路３５８號１樓,120.2709,23.01289
5905311154,佑心藥局,(06)3022516,臺南市永康區振興路４６號１樓,120.2338,23.01167
5905311172,美日新藥局,(06)2420980,臺南市永康區塩行里中正北路６２號１樓,120.2406,23.04138
5905311190,和德藥局大灣店,(06)2735049,臺南市永康區崑山里永大路二段９號１樓,120.2595,23.00127
5905311216,新安生堂藥局,(06)2717068,臺南市永康區西勢里富強路一段５０號１樓,120.2726,23.01454
5905311225,安生堂藥局,(06)2725265,臺南市永康區南灣里大灣路４２９號１樓,120.2655,23.00294
5905320091,台和群康藥局,(06)2891360,臺南市東區崇善路４７０號１樓,120.2295,22.97292
5905320135,安麗兒藥局裕農店,(06)2377378,臺南市東區裕農路１００號１樓,120.2268,22.9857
5905320180,恩泉藥局,(06)3352078,臺南市東區崇明路２０７號１樓,120.22,22.97794
5905320260,群安健保藥局,(06)2690652,臺南市東區復興里自由路三段１５１、１５３號１樓,120.2369,22.98302
5905320331,高福藥局,(06)2904668,臺南市東區大智里德東街１６８號,120.2322,22.96171
5905320368,巴克禮中西藥局,(06-)3361100,臺南市東區中華東路三段３７７巷８號１樓,120.2215,22.97337
5905320466,佑全中華藥局,(06)2906386,臺南市東區中華東路三段２１５號,120.2253,22.97603
5905320475,美生藥局,(06)2670035,臺南市東區德高里自由路一段１６１號１樓,120.2367,22.96862
5905320537,舒惠藥局,(06)2087052,臺南市東區青年路４３２－６號１樓,120.2168,22.99104
5905320546,佑丞藥局,(06)2902709,臺南市東區中華東路二段１２９號,120.2335,22.98546
5905320564,杏一台南崇德藥局,(06)2671939,臺南市東區崇德路６７４號,120.2274,22.96762
5905320608,中華台安藥局,(06)2092622,臺南市東區中華東路一段４號１樓,120.2344,22.99818
5905320635,晉大藥局,(06)2092580,臺南市東區東光里東興路２６４號１樓,120.2298,22.99522
5905320644,崇善藥局,(06)2896619,臺南市東區崇善路３９２號１樓,120.2288,22.97485
5905320653,東門台安藥局,(06)2904377,臺南市東區中華東路三段２號１樓,120.2291,22.98105
5905320662,台南鼎澄藥局,(06)2908855,臺南市東區崇明路二十街１３號１樓,120.2261,22.96735
5905320699,恆大藥局,(06)2905586,臺南市東區崇明路５９０號１樓,120.2247,22.97262
5905320706,悅橙藥局,(06)2605168,臺南市東區崇明路４５９號１樓,120.2247,22.97311
5905320715,令和藥局,(06)2673578,臺南市東區崇善路２６９號１樓,120.2264,22.97833
5905320742,榮記藥健康藥局,(06)2760588,臺南市東區成大里育樂街１５６－４號底層,120.2147,22.99538
5905320751,倍加藥局,(06)2364173,臺南市東區東門路一段２５５號１樓,120.2179,22.9872
5905320779,安麗兒藥局仁和店,(06)2908000,臺南市東區仁和路１０５－１號１樓,120.2329,22.97181
5905320797,大樹自由藥局,(06)2890800,臺南市東區自由路三段３８２號１樓,120.2373,22.98241
5905320804,大樹大同藥局,(06)2158700,臺南市東區大同路二段２２７、２２９號１樓,120.2143,22.97567
5905320840,信霖藥局,(06)3364699,臺南市東區崇明路１２３號１樓,120.2179,22.97946
5905320859,裕農藥局,(06)2092286,臺南市東區裕農路３０２號１樓,120.2287,22.98652
5905320868,大樹東寧藥局,(06)2360006,臺南市東區東寧路４３６號１樓,120.2291,22.9895
5905320877,靈安藥局,(06)2143727,臺南市東區大福里榮譽街３２－２號１樓,120.2163,22.97419
5905320886,中華崇德藥局,(06)2880800,臺南市東區中華東路三段１８１、１８３號１樓,120.2259,22.97667
5905320911,大樹崇道藥局,(06)2680456,臺南市東區崇道路６３號１樓,120.2272,22.97227
5905320939,東門啄木鳥藥局,(06)2884569,臺南市東區東門路三段２４１號１樓,120.2358,22.97662
5905320948,崇明台安藥局,(06)2900350,臺南市東區崇明路３０４號１樓,120.2198,22.97762
5905320966,安納藥局,(06)3313316,臺南市東區裕文路２３５號１樓,120.2438,22.98249
5905320975,萬錠藥局,(06)2679299,臺南市東區崇成里崇德路６１９號１樓,120.2277,22.97181
5905330024,聖安健保藥局,(06)2916898,臺南市南區健康路二段１７３號１樓,120.193,22.98142
5905330113,進祥藥局,(06)2630571,臺南市南區文南里健康路２段３４２－１號１樓,120.1879,22.98205
5905330159,勝一藥局,(06)2626168,臺南市南區省躬里灣裡路９０號１樓,120.1807,22.93114
5905330220,合樂藥局,(06)2625016,臺南市南區灣裡路３０９號,120.1824,22.92566
5905330239,宏祐健保藥局,(06)2632580,臺南市南區新孝路５９號,120.1893,22.97767
5905330275,太子藥局大同店,(06)2158339,臺南市南區大同路二段３４８號１樓,120.2138,22.97574
5905330284,大樹佳華藥局,(06)2641238,臺南市南區金華路二段１２９號１樓,120.1911,22.98035
5905330337,千薏台安藥局,(06)2638265,臺南市南區金華路二段２號１樓,120.1912,22.97556
5905330408,康而富藥局,(06)2639373,臺南市南區鹽埕里金華路一段３７５號１樓,120.1903,22.96965
5905330417,明興啄木鳥藥局,(06)2620793,臺南市南區明興路５１號１樓,120.1883,22.95974
5905330426,繁華藥局,(06)2656368,臺南市南區再興里金華路二段９６號１樓,120.1913,22.97807
5905340075,麗欣健保藥局,(06)2209393,臺南市中西區永華路一段１９４號１樓,120.1917,22.98835
5905340155,東北藥局,(06)2226753,臺南市中西區福安里西門路二段１４號１樓,120.1981,22.99075
5905340164,田邊藥局,(06)2200106,臺南市中西區中正路２３６號,120.1969,22.99326
5905340173,賜安大藥局,(06)3589600,臺南市中西區光賢里武聖路９號,120.1932,23.00517
5905340226,楊藥局,(06)2806353,臺南市中西區西和路３３號１樓,120.1926,23.00336
5905340235,人人藥局,(06)3583668,臺南市中西區和緯路５段１９７號１樓,120.1845,23.00393
5905340253,永華台安藥局,(06)2225531,臺南市中西區永華路一段１８４、１８４－１號１、２、３樓,120.1919,22.98831
5905340262,瑞城藥局,(06)2215810,臺南市中西區赤嵌里忠義路二段１７６號１樓,120.2043,22.99649
5905340271,南光藥局,(06)2226539,臺南市中西區永福路２段７３號１、２樓,120.2007,22.99207
5905350026,良佑堂藥局,(06)2586223,臺南市北區文賢路２９９號,120.1935,23.00631
5905350035,海安藥師藥局,(06)2814600,臺南市北區北成路４１８號１樓,120.202,23.01928
5905350062,嘉星藥師大藥局,(06)2093737,臺南市北區開元路３３９號１樓,120.222,23.00854
5905350133,大昌藥局,(06)2519121,臺南市北區北安路１段１３２號１樓,120.2127,23.01481
5905350151,公園台安藥局,(06)2518402,臺南市北區公園路８４０號,120.2121,23.01331
5905350231,祥好藥局,(06)2510366,臺南市北區正風里公園路８７６號１樓,120.2128,23.01412
5905350240,健康藥局,(06)2003078,臺南市北區長榮路５段２１號,120.2206,23.00827
5905350259,樂森藥局,(06)2511338,臺南市北區和緯路二段３３６號１樓,120.2048,23.01259
5905350268,宸安藥局,(06)2238679,臺南市北區光民里成功路４３６號１樓,120.1981,23.00093
5905350302,旻恩藥局,(06)2260590,臺南市北區公園里北門路二段３７－１號,120.2123,22.99817
5905350311,美康藥局,(06)2810311,臺南市北區公園路３７５－５號,120.2102,23.00597
5905350366,千多藥局,(06)2228641,臺南市北區金華路五段１號,120.1962,23.0016
5905350384,北安台安藥局,(06)2518166,臺南市北區北安路一段１６３號,120.2087,23.01755
5905350393,和緯啄木鳥藥局,(06)2519805,臺南市北區和緯路２段１７６號,120.2074,23.01231
5905350428,大正藥局,(06)2226899,臺南市北區公園南路３２４號１樓,120.2033,23.00268
5905350482,大欣藥局,(06)2236828,臺南市北區公園路２０３號１樓,120.2077,22.99941
5905350508,育德保健藥局,(06)2525360,臺南市北區富德里育德路５３０號１樓,120.2069,23.01527
5905350535,開元台安藥局,(06)2818061,臺南市北區開元路２８８號１樓,120.2226,23.00852
5905350544,康是美藥局和緯店,(06)2519076,臺南市北區福德里和緯路二段２３８號１樓,120.2067,23.01231
5905370073,宜康藥局同安店,(06)2470720,臺南市安南區同安路２３５號１樓,120.1921,23.0425
5905370135,安南日日康藥局,(06)3550995,臺南市安南區安和路五段３３號,120.2185,23.06398
5905370144,仁大藥局,(06)2561777,臺南市安南區海佃路三段３４６號１樓,120.1788,23.05322
5905370180,安南啄木鳥藥局,(06)2821265,臺南市安南區安和路一段１０７號,120.2143,23.02826
5905370206,美家藥局,(06)2566006,臺南市安南區安和路一段３５２號１樓,120.2125,23.03322
5905370224,上振藥局,(06)2551061,臺南市安南區安中路三段４３號１樓,120.1828,23.04721
5905370233,弘昇藥局,(06)2567605,臺南市安南區鳳凰里安中路一段７００巷３２號１樓,120.1974,23.04387
5905370260,廣道藥局,(06)2568383,臺南市安南區溪心里海佃路三段２１８號１樓,120.1806,23.05119
5905370304,大樹安南藥局,(06)3563370,臺南市安南區安和路四段５５７號１樓,120.2185,23.06181
5905370322,鳳凰平光中西藥局,(06)2565635,臺南市安南區鳳凰里安中路一段７００巷２７號１樓,120.1967,23.04319
5905370331,草湖寮王藥局,(06)2465859,臺南市安南區梅花里安中路一段６３３號１樓,120.1977,23.04163
5905370402,普得中西藥局,(06)2450082,臺南市安南區淵東里本原街三段２５５號１樓,120.1741,23.05183
5905370448,宜康安和藥局,(06)2521250,臺南市安南區安和路一段６８號１樓,120.2151,23.0273
5905370466,大樹北安藥局,(06)2553633,臺南市安南區北安路三段１５８號１樓,120.2036,23.04256
5905370484,安中台安藥局,(06)2470015,臺南市安南區北安路２段３６３之２４號１樓,120.2022,23.039
5905380051,安平藥局,(06)2970551,臺南市安平區國平路５６６號１樓,120.1719,22.99676
5905380097,宜康永華藥局,(06)2930119,臺南市安平區國平里永華路二段７８５號１樓,120.1701,22.99098
5905380140,信美藥局,(06)2980142,臺南市安平區建平里平通路１４２號１樓,120.1793,22.99272
5905380177,凱順藥局,(06)2999752,臺南市安平區育平里健康三街３９號１樓,120.168,22.98595
5905380239,怡家藥局,(06)2970519,臺南市安平區國平里華平路１４６─５號１樓,120.174,22.98438
5905380275,心悅藥局,(06)2973727,臺南市安平區華平里華平路５３７號１樓,120.1754,22.99425
5905380293,人仁藥局,(06)2998667,臺南市安平區怡平里慶平路２８１號１樓,120.1763,22.99668
5905380300,新高橋藥局台南永華店,(06)2992362,臺南市安平區華平路２７９號１樓,120.1748,22.99031
5905380408,永華啄木鳥藥局,(06)2985173,臺南市安平區永華路二段３６９號１樓,120.1806,22.98956
5905380417,好心情藥局,(06)2995885,臺南市安平區平通路５８６號１樓,120.1701,22.99393
5905380426,好朋友藥師藥局,(06)2997907,臺南市安平區建平七街６８３號１樓,120.1692,22.98999
5907010043,北京藥局文山店,(07)7676766,高雄市鳳山區青年路二段３６７號１．２樓,120.3511,22.64152
5907010098,建明藥局,(07)7668550,高雄市鳳山區海洋一路１２２號,120.3449,22.60985
5907010141,維安社區藥局,(07)7630980,高雄市鳳山區國富路２５-１號,120.3497,22.61517
5907010150,育英藥局文德店,(07)7777059,高雄市鳳山區文德路２９號,120.3527,22.63836
5907010178,華美藥局,(07)7452732,高雄市鳳山區建國路三段１６１號,120.3535,22.6367
5907010187,人人好藥局,(07)8151566,高雄市鳳山區五甲三路１０巷７號１樓,120.3278,22.59336
5907010203,新富丁丁藥局,(07)7156198,高雄市鳳山區新富路９５號,120.3361,22.6127
5907010212,北京藥局中崙店,(07)7550655,高雄市鳳山區中崙四路１６號１樓,120.3519,22.59971
5907010267,禾康藥局,(07)7997139,高雄市鳳山區瑞竹路１６號１樓,120.3662,22.62462
5907010276,愛家社區藥局,(07)8123698,高雄市鳳山區福德街１４１號,120.3267,22.59042
5907010301,高大藥局,(07)7718671,高雄市鳳山區南華路１８２號,120.3381,22.60295
5907010365,科健藥局,(07)7777868,高雄市鳳山區八德路２４６－５號１樓,120.3568,22.63853
5907010409,好郝藥局,(07)7468840,高雄市鳳山區武松里經武路１７８號１樓,120.3642,22.63619
5907010427,好郝藥局鳳林店,(07)7869188,高雄市鳳山區誠智里鳳林路２９０號,120.3779,22.62216
5907010454,上泰健保藥局,(07)7455127,高雄市鳳山區鎮西里中華街２７號１樓,120.3559,22.62698
5907010525,長青連鎖藥局光遠店,(07)7103487,高雄市鳳山區光遠路２７１號１樓,120.3588,22.62596
5907010730,鳳山啄木鳥藥局,(07)7162314,高雄市鳳山區善美里保泰路３３６號１樓,120.3348,22.60287
5907010927,元元鳳山藥局,(07)7529595,高雄市鳳山區一甲里五甲二路３４８之１號１樓,120.3377,22.59955
5907010945,光田藥局,(07)7460773,高雄市鳳山區鎮東里光遠路９５號１樓,120.3656,22.62412
5907011004,永豐久億藥局,(07)7104281,高雄市鳳山區和興里五甲一路１１號１樓,120.3586,22.62189
5907011040,伊甸藥師藥局文化店,(07)7776002,高雄市鳳山區文福里文化西路１１號１樓,120.3494,22.63475
5907011068,新高橋藥局文龍東店,(07)7353946,高雄市鳳山區鎮北里文龍東路３１０號,120.3666,22.64074
5907011086,閤康藥局,(07)7197787,高雄市鳳山區忠義里中山西路３７６－７號１樓,120.3412,22.62897
5907011095,鳳山五甲藥局,(07)7269899,高雄市鳳山區正義里五甲二路１３９號１樓,120.3409,22.6014
5907011111,壹然藥局,(07)7014755,高雄市鳳山區中正里瑞興路４６２號１樓,120.3713,22.63084
5907011148,大樹國泰藥局,(07)7407234,高雄市鳳山區興仁里五甲一路２９２號,120.3539,22.61698
5907011175,鳳西藥局,(07)7902717,高雄市鳳山區忠義里中山西路２３８號１樓,120.3471,22.62831
5907011184,肉豆公藥局南榮店,(07)7278385,高雄市鳳山區善美里南榮路１６９號１樓,120.3366,22.60186
5907011193,新高橋藥局新富店,(07)9630233,高雄市鳳山區新泰里新富路４２８號１樓,120.3451,22.61288
5907011200,和成藥局,(07)7961566,高雄市鳳山區南成里和成路６５號１樓,120.3379,22.58986
5907011219,協康健保藥局,(07)7199259,高雄市鳳山區瑞竹里博愛路２１５號１樓,120.3704,22.62887
5907011228,鳳山青年藥局,(07)7678383,高雄市鳳山區文德里青年路二段３９９號１樓,120.3513,22.64292
5907011264,新高橋藥局青年店,(07)7676179,高雄市鳳山區文衡里青年路二段２８９號１樓,120.3508,22.63964
5907011273,鳳山服安藥局,(07)7406330,高雄市鳳山區忠義里中山西路３８０號１樓,120.3409,22.62906
5907011291,桂林活力藥師藥局鳳山店,(07)7012827,高雄市鳳山區中正里瑞興路４８８號１樓,120.3719,22.63089
5907011317,凱旋藥局,(07)7671181,高雄市鳳山區國隆里新富路３７３號１樓,120.3475,22.61494
5907011362,佑全鳳山藥局,(07)7801568,高雄市鳳山區文德里青年路二段４６３號１－２樓,120.3498,22.64513
5907011371,大樹五甲藥局,(07)8224926,高雄市鳳山區福祥里五甲三路２４號１－２樓．２６號１－２樓,120.3278,22.59317
5907011399,佑家藥師藥局,(07)7673298,高雄市鳳山區新強里新富路２８８號１樓,120.3418,22.61265
5907011406,長青連鎖藥局大士店,(07)7104618,高雄市鳳山區五甲一路１３９號１樓,120.3562,22.61968
5907011497,久億藥局,(07)7663095,高雄市鳳山區新泰里海洋一路１２１號１樓,120.3441,22.61007
5907020021,柏康藥局,(07)6241688,高雄市岡山區壽天路２２號,120.2938,22.79663
5907020030,鑫德昌藥局,(07)6233338,高雄市岡山區溪東路３８號１樓,120.2915,22.79249
5907020076,千千藥局,(07)6216850,高雄市岡山區平和路１２５號１樓,120.2934,22.79455
5907020085,大德藥局,(07)6221456,高雄市岡山區大德一路９８號,120.3025,22.79689
5907020094,大樹岡山藥局,(07)6219477,高雄市岡山區岡山路１３６號,120.2967,22.78913
5907030072,旗美藥局,(07)6629839,高雄市旗山區東平里延平二路４１號,120.4933,22.882
5907030090,睛好活力藥局,(07)6625119,高雄市旗山區湄洲里中山路１２７號,120.482,22.88873
5907030134,旗山啄木鳥藥局,(07)6625728,高雄市旗山區中華路１０５０號,120.4828,22.87904
5907030152,旗山藥局,(07)6621158,高雄市旗山區中華路２３號,120.4841,22.88027
5907040014,寶樹藥局,(07)6812323,高雄市美濃區中山路１段８８號,120.5393,22.90148
5907040023,大佳藥局,(07)6852988,高雄市美濃區獅山里中華路５９－７號,120.5704,22.87774
5907040032,廣元藥局,(07)6810125,高雄市美濃區泰安里中正路一段８－１號,120.5412,22.90198
5907050010,新朋友藥師連鎖藥局,(07)6460588,高雄市林園區東林東路４４號,120.3971,22.50389
5907050029,林園健人藥師藥局,(07)6421598,高雄市林園區林園北路３７２號,120.3951,22.5126
5907050092,林園啄木鳥藥局,(07)6414772,高雄市林園區鳳林路二段８０３號１樓,120.3957,22.5135
5907050109,林園藥局,(07)6425855,高雄市林園區仁愛路１３號１樓,120.3928,22.50418
5907060034,化春藥師藥局,(07)7037275,高雄市大寮區中庄里中庄路３７號,120.3964,22.63453
5907060043,永成專業藥師藥局,(07)7816221,高雄市大寮區中興里鳳林四路６２號,120.3878,22.6152
5907060098,佳和健保藥局,(07)7821500,高雄市大寮區鳳林三路５１２號,120.3954,22.60616
5907060221,淑德健保藥局,(07)7923556,高雄市大寮區內坑里淑德新村１號３樓,120.3707,22.58833
5907060230,華思中西藥局,(07)7835567,高雄市大寮區永芳里進學路１２２號１樓,120.3933,22.60468
5907060258,杏合藥局,(07)7023620,高雄市大寮區後庄里民族路２７０號１樓,120.3917,22.63746
5907060267,加嘉藥局,(07)7860683,高雄市大寮區山頂里內厝路１９１號１樓,120.3901,22.60793
5907070012,舒康藥師藥局,(07)6520268,高雄市大樹區久堂路１２９號,120.4167,22.65781
5907070030,久堂藥局,(07)6512800,高雄市大樹區久堂里久堂路１３６號１樓,120.4178,22.65813
5907080081,英祥連鎖藥局仁雄店,(07)3722509,高雄市仁武區仁雄路３６之２號,120.3512,22.68115
5907080125,仁武丁丁藥局,(07)3721896,高雄市仁武區仁和里鳳仁路２１之８號,120.3558,22.6802
5907080189,德昌藥局仁雄店,(07)3749166,高雄市仁武區灣內里仁雄路３８、３８－１、３８－２號,120.3506,22.68074
5907080214,新高橋藥局八德中店,(07)3485857,高雄市仁武區八卦里八德中路８６、８８、９０號,120.3393,22.68489
5907080223,新高橋藥局仁雄店,(07)3485857,高雄市仁武區赤山里仁雄路８９－３號,120.3457,22.67722
5907080232,大樹仁武藥局,(07)3744777,高雄市仁武區赤山里仁雄路８０－９號,120.3469,22.67811
5907080250,仁同藥局,(07)3736142,高雄市仁武區八卦里永仁街７０６號１樓,120.3313,22.69072
5907080269,興德昌藥局,(07)3757005,高雄市仁武區文武里中華路２３２號,120.3516,22.69985
5907080303,群邦藥局,(07)3745985,高雄市仁武區八德東路１８０號１樓,120.3422,22.68538
5907080321,德杏藥局,(07)3735936,高雄市仁武區永仁街２０號１樓,120.3297,22.68191
5907080330,文武藥局,(07)3733551,高雄市仁武區文武里中華路３５３號,120.3535,22.7011
5907090023,金元發藥局,(07)3542200,高雄市大社區中山路１９９號,120.3471,22.73215
5907090032,上鼎藥師健保藥局,(07)3531053,高雄市大社區中山路４２３號,120.3526,22.73146
5907090069,德泰健保藥局,(07)3524296,高雄市大社區大新路３５之１號１樓,120.3503,22.72531
5907090087,安泰專業藥師藥局,(07)3553715,高雄市大社區中山路２６７號１樓,120.3492,22.73194
5907090121,新高橋藥局大社店,(07)3485857,高雄市大社區中山路２７７號１樓,120.3496,22.73189
5907090167,大樹大社藥局,(07)3531682,高雄市大社區中山路３０８號１樓,120.3503,22.73145
5907100088,本館藥局,(07)3707655,高雄市鳥松區大華里本館路１９０號１樓,120.3361,22.65556
5907110048,和德藥局橋頭店,(07)6113580,高雄市橋頭區橋南路１１６－１號,120.3125,22.75441
5907110066,安麗兒藥局橋頭店,(07)6111209,高雄市橋頭區隆豐路１４８號,120.3062,22.75491
5907110084,昱佳藥局,(07)6110302,高雄市橋頭區仕豐南路６６號,120.3099,22.74901
5907110093,順和藥局,(07)6118688,高雄市橋頭區仕豐路５號,120.3087,22.75144
5907110146,民權藥局,(07)6113632,高雄市橋頭區橋頭里２８鄰成功路２２７號１樓－２２９號１樓,120.3105,22.7563
5907110155,丁丁藥局橋頭店,(07)6113633,高雄市橋頭區成功南路１４８巷３號,120.3134,22.75229
5907120017,和德藥局燕巢店,(07)6143499,高雄市燕巢區西燕里中民路６２８號,120.3612,22.79345
5907140108,德昌藥局阿蓮店,(07)6318868,高雄市阿蓮區阿蓮里中正路４５６號,120.3321,22.88075
5907140117,悅安藥局,(07)6319632,高雄市阿蓮區和蓮里信義路１１１號,120.3263,22.87952
5907140126,天德藥局阿蓮店,(07)6311566,高雄市阿蓮區南蓮里忠孝路１６８、１７０號,120.3304,22.87917
5907150024,安麗兒藥局路竹店,(07)6071699,高雄市路竹區大社路５１號１樓,120.262,22.8632
5907150097,金德昌藥師藥局,(07)6978143,高雄市路竹區大社路９０之６號,120.263,22.86382
5907150177,佑安藥局,(07)6072215,高雄市路竹區中和街１８２號,120.2575,22.85889
5907150202,永昌藥局,(07)6964321,高雄市路竹區延平路８１號,120.2579,22.85786
5907150220,天德藥局路竹店,(07)6975656,高雄市路竹區忠孝路２６－２、２６－３號１樓,120.2601,22.86059
5907150239,固德藥局,(07)6978641,高雄市路竹區金平路３１２號,120.269,22.86954
5907150257,大樹大立藥局,(07)6961663,高雄市路竹區國昌路５１號,120.26,22.85409
5907160039,華安藥局,(07)6938208,高雄市湖內區中山路一段４５１－１９號,120.2459,22.88472
5907160075,安麗兒藥局東方店,(07)6936029,高雄市湖內區湖東里東方路９０號,120.2483,22.87968
5907160093,保生藥局,(07)6990800,高雄市湖內區葉厝里保生路３４０．３４２號,120.2195,22.90733
5907170035,得安藥局,(07)6909718,高雄市茄萣區嘉安里仁愛路三段５６巷１－３號,120.1847,22.90057
5907200038,和德藥局梓官店,(07)6191008,高雄市梓官區梓和里梓官路２３３號１樓,120.267,22.75975
5907200047,永恒健康生活藥局,(07)6102755,高雄市梓官區智蚵里通安路１７６號１樓,120.252,22.7307
5907200065,復安堂藥局,(07)6103147,高雄市梓官區信蚵里廣澤路２號１樓,120.2553,22.7297
5907240014,博林健保藥局,(07)6671883,高雄市內門區觀亭里中正路１６０巷５１號,120.4539,22.9232
5907280036,七賢藥局,(07)5330616,高雄市鹽埕區七賢三路１６２號１樓,120.2829,22.62712
5907290023,明倫藥局,(07)5520736,高雄市鼓山區明倫路１５０號１樓,120.2979,22.66507
5907290103,康喜藥局,(07)5550060,高雄市鼓山區華榮路６０７號,120.2923,22.67088
5907290112,新高橋藥局華榮店,(07)5534727,高雄市鼓山區華榮路２８７號１樓,120.2967,22.66616
5907290158,美館久億藥局,(07)5227762,高雄市鼓山區美術東二路２４５、２４７號,120.2883,22.66526
5907290176,為安藥局,(07)5212912,高雄市鼓山區九如四路９５９號,120.2788,22.65541
5907290238,聯合藥師藥局,(07)5500558,高雄市鼓山區中華一路９７０號１樓,120.2919,22.65515
5907290265,新美館藥局,(07)5522006,高雄市鼓山區中華一路９７２號,120.2919,22.65513
5907290274,明誠丁丁藥局,(07)5520120,高雄市鼓山區明誠三路４６５號,120.3011,22.66097
5907290309,鼓山藥局,(07)5520017,高雄市鼓山區華榮路１０號,120.2973,22.66156
5907290327,金好藥局,(07)5869556,高雄市鼓山區青海路４１８號１樓,120.2845,22.65177
5907290336,丁丁藥局,(07)3854991,高雄市鼓山區美術東二路７號,120.2877,22.65167
5907290345,新高橋藥局裕明店,(07)5224680,高雄市鼓山區裕誠路１６６８號１樓,120.294,22.66065
5907290354,文昇藥局,(07)5525314,高雄市鼓山區慶豐街１２５號,120.2942,22.66724
5907300024,重愛藥局,(07)3501870,高雄市左營區文自路９３０號１樓,120.3161,22.68547
5907300042,育安健保藥局,(07)5508862,高雄市左營區富國路３３９號１樓,120.3071,22.66643
5907300088,神農健保藥局,(07)3418228,高雄市左營區重和路１１７號,120.3121,22.68463
5907300168,金元藥局,(07)3458378,高雄市左營區重愛路２２０號,120.3156,22.68562
5907300177,人尚大藥局,(07)3100000,高雄市左營區榮總路１０９號１樓,120.3217,22.67927
5907300211,勁好健保藥局,(07)5855767,高雄市左營區果峰街１２巷２６號１樓,120.2881,22.67178
5907300239,左野藥局,(07)3486883,高雄市左營區崇德路２２２號,120.3052,22.675
5907300319,士凱藥局,(07)3430257,高雄市左營區孟子路１７８號,120.3126,22.67387
5907300346,正心藥師藥局,(07)5880386,高雄市左營區左營大路４７３之２號,120.295,22.68946
5907300408,安闔藥局,(07)3596913,高雄市左營區榮總路２３號１樓,120.3217,22.67851
5907300417,森森藥師藥局,(07)5853600,高雄市左營區緯六路２１５號１樓,120.2874,22.69707
5907300506,躍獅祐恩藥局,(07)5508706,高雄市左營區明華一路１３２號１樓,120.3073,22.66307
5907300515,詮裕藥局,(07)3453942,高雄市左營區華夏路７０６號１樓,120.3022,22.6778
5907300588,明禾藥局,(07)3493734,高雄市左營區華夏路１７３２號１樓,120.3204,22.68777
5907300613,新高橋藥局河堤店,(07)5582806,高雄市左營區裕誠路１４４號１樓及地下１樓,120.3095,22.66423
5907300631,大樹孟子藥局,(07)3461772,高雄市左營區孟子路２２６、２２８號,120.3112,22.67415
5907300659,維康藥局高榮店,(07)3494540,高雄市左營區榮總路１６３號、１６５號,120.3216,22.6809
5907300677,佳寧峰藥局,(07)5886408,高雄市左營區部後街２號,120.2886,22.6834
5907300686,左營自由藥局,(07)5589991,高雄市左營區自由二路３５０、３５０－１號,120.3091,22.66599
5907300702,禾順左營藥局,(07)3592582,高雄市左營區自由三路４１０號２樓,120.3127,22.67563
5907300711,富元聯合健康藥局,(07)3488585,高雄市左營區博愛三路３７號,120.3038,22.67145
5907300748,翔生藥局合群店,(07)5880055,高雄市左營區緯六路２５６號,120.2871,22.6976
5907300757,奕康藥局,(07)5561908,高雄市左營區明華一路７６號,120.3091,22.663
5907300766,悠仁藥局,(07)3457979,高雄市左營區自由三路１７０號,120.3113,22.67165
5907300784,新高橋藥局博正店,(07)5509810,高雄市左營區忠言路１８０號,120.3038,22.65841
5907300800,元大藥師健保藥局,(07)3507531,高雄市左營區榮德街３２７號,120.3211,22.68636
